,Archive,Attendance,Contains_BOF,Newspaper Issue Date,Event_Date,Event_Location,Location,Newspaper,Notes,Organization_Hosting,Persons,Price_Event,Revenue,Unique_Reference_Number,MENU,s,Citation,City,State/Province,Country,Latitude,Longitude
0,BAnQ,,n,'1902-06-25,'1902-07-02,Mr. Dawson's Hall,"Erle, Quebec, Canada",The Sherbrooke Examiner,,Ladies' Aid Society,Mr. Lee Gorham,,,R_27,,,,Erle, Quebec, Canada,45.6995815,-71.6015947
1,BAnQ,,n,'1911-05-18,'1911-05-16,"Congregational Church, lecture room","Waterville, Quebec, Canada",Sherbrooke Daily Record,,Willing Workers,,,,R_19,,,,Waterville, Quebec, Canada,45.277061,-71.890755
2,BAnQ,"""not well attended"" but ""was quite a success""",n,'1911-05-18,'1911-05-16,"Congregational Church, lecture room","Waterville, Quebec, Canada",Sherbrooke Daily Record,References same event as R_19,Willing Workers,,,,R_26,,,,Waterville, Quebec, Canada,45.277061,-71.890755
3,BAnQ,,n,'1894-05-18,'1894-05-17,,"Sherbrooke, Quebec, Canada",The Sherbrooke Examiner,,,,,,R_48,,,,Sherbrooke, Quebec, Canada,45.403271,-71.889038
4,BAnQ,,N,'1921-02-14,'1921-02-08,Elm Grove Hall,"West Shefford, Quebec, Canada",Sherbrooke Daily Record,,,,,31$ CAD,R_12,,,,West Shefford, Quebec, Canada,45.3642563,-72.56455755
5,BAnQ,,n,'1911-05-15,'1911-05-23,"Congregational Church, basement","Waterville, Quebec, Canada",Sherbrooke Daily Record,,Willing Workers,,,,R_18,,,,Waterville, Quebec, Canada,45.277061,-71.890755
6,BAnQ,,n,'1914-05-12,'1914-05-12,Methodist Church Vestry,"Mansonville, Quebec, Canada",Sherbrooke Daily Record,This newspaper references the same event as R_16,I.O.G.T.,,,,R_17,,,,Mansonville, Quebec, Canada,45.0497367,-72.3919878
7,BAnQ,"""well attended""",n,'1914-05-19,'1914-05-12,Methodist Church Vestry,"Mansonville, Quebec, Canada",Sherbrooke Daily Record,,I.O.G.T.,Miss Agnes Crowell; F. Kel-Sisco; Dr. E. H. Henderson; Rev. G. W. Runnells; E. Davis; Mr. S. A. Mason,,,R_20,,,,Mansonville, Quebec, Canada,45.0497367,-72.3919878
8,BAnQ,,n,'1914-05-08,'1914-05-12,Methodist Church Vestry,"Mansonville, Quebec, Canada",Sherbrooke Daily Record,,The Guiding Star Lodge No. 83,,,,R_16,,,,Mansonville, Quebec, Canada,45.0497367,-72.3919878
9,BAnQ,,n,'1924-03-27,'1924-04-01,"Residence of Hosts, Eleanor Parker, Myra Spencer","Shawville, Quebec, Canada",The Equity,"Interesting rendition of a Conundrum Supper, not the same as usual - April Fools CS",Eleanor Parker; Myra Spencer,Eleanor Parker; Myra Spencer,,,R_40,,,,Shawville, Quebec, Canada,45.605872,-76.494713
10,BAnQ,,N,'1936-04-27,'1936-04-23,Town Hall,"Island Brook, Quebec, Canada",Sherbrooke Daily Record,,Women's Association,,,,R_5,,,,Island Brook, Quebec, Canada,45.3890901,-71.4771606
11,BAnQ,,n,'1916-10-30,'1916-10-31,St. James Hall,"Farnham, Quebec, Canada",Sherbrooke Daily Record,,Ladies of St. James Church,,,,R_25,,,,Farnham, Quebec, Canada,45.2831,-72.974968
12,BAnQ,50,N,'1914-01-13,'1914-01-06,Temperance Hall,"Sherbrooke, Quebec, Canada",Sherbrooke Daily Record,,I.O.G.T.,F. E. Dyer; Homer Ingalls; Rev. F. J. Hayden; Eugene Dyer; Glenna Griggs; Frederick Olmstead,,19$ CAD,R_3,,,,Sherbrooke, Quebec, Canada,45.403271,-71.889038
13,BAnQ,,N,'1913-01-14,'1913-01-17,Hurlburd and Stevens' Hall,"East Farnham, Quebec, Canada",Sherbrooke Daily Record,,Ladies' Aid Society,,,,R_14,,,,East Farnham, Quebec, Canada,45.241294,-72.773094
14,BAnQ,,n,'1913-01-21,'1913-01-30,I.O.O.F. Hall,"East Angus, Quebec, Canada",Sherbrooke Daily Record,,Choral Society,,,,R_15,,,,East Angus, Quebec, Canada,45.4828558,-71.6594817
15,BAnQ,,y,'1903-11-16,'1903-11-14,Victoria Hall,"Montreal, Quebec, Canada",Montreal Gazette,References the same event as R_71,Boys' Sunshine Club of Westmount,,,,R_72,,,,Montreal, Quebec, Canada,45.4972159,-73.6103642
16,BAnQ,32,N,'1932-01-21,'1932-01-14,"Gordon Terrace, home of Miss Jessie Corey","nan, Quebec, Canada",Sherbrooke Daily Record,,Woman's Institue Members,Miss Jessie Corey; Miss McCain; Mrs. Percy Rhicard; Mrs. E. C. Knight; Mrs. Frank Corey; Mr. Lloyd Harris; Miss Dolena Nicholson; Miss Maude Fortin; Mr. Clifford Rhicard; Mrs. F. J. Laraway; Mrs. Raymond Wescott; Miss Sarach Yates; Mr. F. J. Laraway; Billy Rhicard,,,R_13,,,,, Quebec, Canada,52.4760892,-71.8258668
17,BAnQ,,n,'1936-05-21,,,"Dixville, Quebec, Canada",Sherbrooke Daily Record,"The newspaper mentions that at a certain event ""Plans were then made for a conundrum supper""",Woman's Institue Members,Mrs. Gordon Bellows,,,R_21,,,,Dixville, Quebec, Canada,45.067701,-71.770935
18,BAnQ,,n,'1972-05-30,'1972-05-17,Melbourne Ridge,"Maricourt, Quebec, Canada",The Sherbrooke Record,Conundrum tea,,Mrs. Anette Malboeuf; Mrs. Lucille Taylor; Mrs. Paul Papineau; Mrs. Real Larochelle; Mrs. Raymond Gifford,,,R_51,,,,Maricourt, Quebec, Canada,45.5636228,-72.2637526
19,BAnQ,,N,'1932-12-27,'1932-12-21,School room of United Church,"Cowansville, Quebec, Canada",Sherbrooke Daily Record,,Ladies' Community Guild,,,,R_7,,,,Cowansville, Quebec, Canada,45.207445,-72.7480524
20,BAnQ,,N,'1914-12-22,'1914-12-15,Home residence of hosts,"Martinville, Quebec, Canada",Sherbrooke Daily Record,,Mr. J. J. Parsons; Mrs. J. J. Parsons,Laurel Merril; Pearl Martin; John Martin,,~40$ CAD,R_6,,,,Martinville, Quebec, Canada,45.278269,-71.714287
21,BAnQ,,n,'1907-11-14,'1919-11-20,Orange Hall,"Shawville, Quebec, Canada",The Equity,,The Ladies' Aid of the Presbyterian Church,,,,R_41,,,,Shawville, Quebec, Canada,45.605872,-76.494713
22,BAnQ,,N,'1913-12-31,'1914-01-02,Temperance Hall,"Sutton, Quebec, Canada",Sherbrooke Daily Record,,,,,,R_8,,,,Sutton, Quebec, Canada,45.1109765,-72.6177899
23,BAnQ,,,'1903-11-14,'1903-11-14,Victoria Hall,"Montreal, Quebec, Canada",Montreal Gazette,,Boys' Sunshine Club of Westmount,,,,R_71,,,,Montreal, Quebec, Canada,45.4972159,-73.6103642
24,BAnQ,,N,'1921-02-02,'1921-02-08,Elm Grove Hall,"West Shefford, Quebec, Canada",Sherbrooke Daily Record,,Ladies' Guild of St. John's Church,,,,R_9,,,,West Shefford, Quebec, Canada,45.3642563,-72.56455755
25,BAnQ,,n,'1936-05-23,,Hall,"Dixville, Quebec, Canada",Sherbrooke Daily Record,Apparently is the event they planned in the newspaper reference R_21,Woman's Institue Members,,,7$ CAD,R_22,,,,Dixville, Quebec, Canada,45.067701,-71.770935
26,BAnQ,"""very well attended""",n,'1913-11-10,'1913-10-31,Foresters' Hall,"Hatley, Quebec, Canada",Sherbrooke Daily Record,,"Amateur Dramatic and Literary Society, in connection with St. James Church",,,,R_23,,,,Hatley, Quebec, Canada,45.185909,-71.93676
27,BAnQ,,n,'1899-12-15,'1899-12-08,Church basement,"Farnham, Quebec, Canada",The Sherbrooke Examiner,"Newspaper date is inconsitent, one page writes December 15, the other pages December 11",Methodist Church choir,Mr. McFarlane; Mrs. Jamieson; Mrs. Wm. Nixon; Miss Mitchell; Miss Nixon; Mr. Fraser; Mrs. Fraser; Miss Fraser; Mr. McKay; Miss Eager; Rev. Mr. Henderson; Mr. Pike,,,R_49,,,,Farnham, Quebec, Canada,45.2831,-72.974968
28,BAnQ,,,'1894-11-03,,St. James Methodist Church,"Montreal, Quebec, Canada",Montreal Gazette,,Ladies' Aid Society,,,,R_70,,,,Montreal, Quebec, Canada,45.4972159,-73.6103642
29,BAnQ,,,'1925-11-02,'1925-10-31,Boys Home of Montreal on Mountain,"Montreal, Quebec, Canada",Montreal Gazette,,Boys Home of Montreal on Mountain,,,,R_75,,,,Montreal, Quebec, Canada,45.4972159,-73.6103642
30,BAnQ,,N,'1913-02-07,'1913-01-30,,"East Angus, Quebec, Canada",Sherbrooke Daily Record,,Choral Society,Mrs. C. N. Andrews; Mr. R. McCrae; Mr. H. Thompson; Mr. L. MacKey,,,R_11,,,,East Angus, Quebec, Canada,45.4828558,-71.6594817
31,BAnQ,,n,'1899-02-08,,,"Quebec City, Quebec, Canada",The Quebec Chronicle,"""A recent society fad is called the conundrum supper""",,Mrs. Snaggs; Mr. Snaggs,,,R_46,,,,Quebec City, Quebec, Canada,46.8259601,-71.2352226
32,BAnQ,,n,'1957-11-28,'1907-11-27,Orange Hall,"Sawville, Quebec, Canada",The Equity,"""50 years ago"" section",The Ladies' Aid of the Presbyterian Congregation,,,~90$ CAD,R_65,,,,Sawville, Quebec, Canada,,
33,BAnQ,,Y,'1911-02-04,'1911-01-31,,"Stanbridge East, Quebec, Canada",Sherbrooke Daily Record,"Both Conundrum Event and Conundrum Tea referenced in newspaper (2 events that follow ione another); Conundrum tea given by ""the young ladies of the society""",Willing Workers,Mrs. E. L. Hodge; Mrs. C. S. Moore; Miss Ethel Struthers; Miss Curie; Master Lawrence Overing; Mrs. Ethel Paquette; Mrs. C. H. Hibbard; Miss Mamie Currie; Rev. R. Y. Overing; Miss Alice McKinney; Mr. G. W. Currigan; Miss Hazel Dyke; Miss Miriam Blinn; Edith Boffin; Rev. Rural Dean Robinson,,,R_10,"“That may be seen through”; “A popular roll”; “Seashore and superstition”; “A nightmare incubator”; “An industrious insect, A bright color, An animal with a hasty temper”; “The housewife’s job and the monkey’s delight”; “Our forefathers’ staff”; “Quaffs”; “I come before you”; “H-2- O.”; “I’ve been through the mill”; “A chip of the old block.”",,,Stanbridge East, Quebec, Canada,45.1215058,-72.9160073
34,BAnQ,,n,'1903-09-23,'1903-09-19,Hall,"South Dudswell, Quebec, Canada",The Sherbrooke Examiner,,Miss Pearl Orr,Miss Pearl Orr,,,R_50,,,,South Dudswell, Quebec, Canada,45.583817,-71.5754826
35,BAnQ,,n,'1901-12-26,'1901-12-31,,"Shawville, Quebec, Canada",The Equity,,"Willing Workers of the Presbyterian Chiurch, Portage du Fort",,,,R_39,,,,Shawville, Quebec, Canada,45.605872,-76.494713
36,BAnQ,,N,'1920-04-01,'1920-04-01,Douglas Hall,"Sherbrooke, Quebec, Canada",Sherbrooke Daily Record,,Philathea class,,,,R_4,,,,Sherbrooke, Quebec, Canada,45.403271,-71.889038
37,British Columbia Historical Newspapers,,n,'1908-04-23,'1908-05-01,"Presbyterian church, basement","Enderby, British Columbia, Canada",Walker's Weekly,,,,5 cents,,R_53,,,,Enderby, British Columbia, Canada,50.5504793,-119.1397789
38,British Columbia Historical Newspapers,"""small attendance""",y,'1893-12-12,'1893-12-11,Wallace Street Methodist Church,"Nanaimo, British Columbia, Canada","The Daily Telegram, Nanaimo",References same event as R_37,,Messrs. Mailtand and Powers; Miss Doberson; Miss Mebius,,,R_38,"Greased staff, laborer's strength, Boston's overthrow, bachelor's comfort, spring's offering, skip- per's home, elevated feline, everybody's friend, women's weapon, marble slab,  sailor's delight- three decker, Tanner's fad, ivory manipulators, kisses. 
",,,Nanaimo, British Columbia, Canada,49.1637594,-123.9379719
39,British Columbia Historical Newspapers,,n,'1900-09-11,'1900-09-11,,"Nelson, British Columbia, Canada","The Tribune, Nelson",,Epworth League of the Methodist Church,,,,R_52,,,,Nelson, British Columbia, Canada,49.494891,-117.290039
40,British Columbia Historical Newspapers,Over 200,N,'1907-03-08,'1907-03-05,Church hall,"New Westminster, British Columbia, Canada",The Daily News New Westminster,"References the same event as R_33, R_34, and R_35",St. Andrew's Young People's bible class,Miss Muirhead; Miss Henderson; Miss McMillan; Ben Robb; Messrs. Hederson and Laidlaw; Mrs Corbett,"""nominal""","""most satisfactory""",R_36,,,,New Westminster, British Columbia, Canada,49.205728,-122.9108651
41,British Columbia Historical Newspapers,,y,'1903-03-07,'1903-03-12,Church,"Phoenix, British Columbia, Canada",The Phoenix Pioneer,,The Ladies' Aid of the Presbyterian Church,,5 cents,,R_44,Irish Beauties; Tree Cake; Woman of Grit; Home of the Skipper; Printers’ Horror; Tramp Cake; Old ladies’ delight; Sweets for the sweet; A Little of this is Plenty; Musical notes; Chips of the old block; Son of Noah; Something to Adore; Something to Ring; Tender keys of spring; Tabby’s party; Pride of Boston; No grounds for complaint; Whip Tips; White man’s strength; Spring’s offering; Cool Impudence; Something Hard to Beat; Mineral Cake,,,Phoenix, British Columbia, Canada,49.2827136,-123.1097142
42,British Columbia Historical Newspapers,,n,'1919-11-07,'1919-11-01,Old Country Tea Rooms,"Vancouver, British Columbia, Canada",The British Columbia Federationist,,Junior Labor League (the younger folks of the Federated Labor Party),Miss Gilpha Simons; Mr. Langlois; Miss Annies Cran; Miss V. Wells; E. Pierrot;,One book or the price of one book,,R_29,,,,Vancouver, British Columbia, Canada,49.2608724,-123.1139529
43,British Columbia Historical Newspapers,,n,'1895-03-07,'1895-03-08,"Cedar Hill, in the schoolhouse","Victoria, British Columbia, Canada",The Daily Colonist,aware to the novelty of the event,the Ladies' Aid of St. Andrew's church,,,,R_32,,,,Victoria, British Columbia, Canada,48.4283182,-123.3649533
44,British Columbia Historical Newspapers,,n,'1893-12-09,'1893-12-11,Wallace Street Methodist Church,"Nanaimo, British Columbia, Canada","The Daily Telegram, Nanaimo","""Something new and novel in the way of social entertainment""",,,,,R_37,,,,Nanaimo, British Columbia, Canada,49.1637594,-123.9379719
45,British Columbia Historical Newspapers,,n,'1907-03-05,'1907-03-05,Church hall,"New Westminster, British Columbia, Canada",The Daily News New Westminster,References the same event as R_33 and R_34,St. Andrew's Young People's bible class,,,,R_35,,,,New Westminster, British Columbia, Canada,49.205728,-122.9108651
46,British Columbia Historical Newspapers,"""large crowd""",n,'1916-06-22,'1916-06-20,Methodist Church,"Cranbrook, British Columbia, Canada",The Cranbrook Herald,,Methodist Church,Mr. Nidd; Mrs. Manning; Mrs. Burton; Mr. John Love,,,R_30,,,,Cranbrook, British Columbia, Canada,49.5107477,-115.7672772
47,British Columbia Historical Newspapers,,n,'1907-02-28,'1907-03-05,Church hall,"New Westminster, British Columbia, Canada",The Daily News New Westminster,,St. Andrew's Young People's bible class,,,,R_33,,,,New Westminster, British Columbia, Canada,49.205728,-122.9108651
48,British Columbia Historical Newspapers,,n,'1904-04-15,'1904-04-19,Brick block next to Donaldson's fruit store,"Grand Forks, British Columbia, Canada",The Evening Sun,A Conundrum tea,The Ladies' Aid of the Presbyterian Church,,,,R_42,,,,Grand Forks, British Columbia, Canada,49.0271754,-118.4568507
49,British Columbia Historical Newspapers,"""large audience""",n,'1914-10-23,'1914-10-12,Orange Hall,"Abbotsford, British Columbia, Canada",The Abbotsford Post,,Ladies' Aid Society,Mr. Reld,,,R_28,,,,Abbotsford, British Columbia, Canada,49.0521162,-122.3294792
50,British Columbia Historical Newspapers,,N,'1919-05-01,'1919-05-09,,"Kelowna, British Columbia, Canada",Kelowna Record,,The Ladies Aid of the Methodist Church,,,,R_1,,,,Kelowna, British Columbia, Canada,49.889326,-119.498291
51,British Columbia Historical Newspapers,,n,'1907-01-10,'1907-01-11,Residence of Miss Bertha Woodward,"Nicola, British Columbia, Canada",The Nicola Herald,In honor of hostess' birthday,Miss Bertha Woodward,,,,R_43,,,,Nicola, British Columbia, Canada,50.1616711,-120.6741487
52,British Columbia Historical Newspapers,,n,'1907-03-04,'1907-03-05,Church hall,"New Westminster, British Columbia, Canada",The Daily News New Westminster,"References the same event as R_33; ""The Conundrum Supper is quite a novelty in this city""",St. Andrew's Young People's bible class,,,,R_34,,,,New Westminster, British Columbia, Canada,49.205728,-122.9108651
53,British Columbia Historical Newspapers,,y,'1910-06-07,,,"Prince Rupert, British Columbia, Canada",The Prince Rupert Optimist,,Mary Dawson,Mary Dawson,"Each dish comes with a price: 5 cents, 5 cents, 1 cent, 15 cents, 2 cents, 5 cents, 3 cents, 2 cents, 5 cents, 3 cents, 2 cents, 1 cent, 2 cents",,R_45,"Son of Noah in thin slices, 5 cents portion (ham). Cold cut talker, 5 cents portion (tongue). Maid of Orleans (molasses taffy), 1 cent. Sorceresses of the desert, 5 and 10 cents (sandwiches). Spinster’s solace, 2 cents (tea). Golden nuggets in white jewel cases, 5 cents each (eggs, any style). Taken in winter and a letter, 3 cents (coffee). A mischievous young goat, 2 cents (butter). Turns over and over, 5 cents (rolls). The first temptation, baked, 3 cents (apples). Uncomfortable predicaments, jumbled, 2 cents (mixed pickles). Nuts that never grew, 1 cent apiece doughnuts). Absorbent marine dainty, 2 cents apiece (sponge cake).",,,Prince Rupert, British Columbia, Canada,54.3126572,-130.32549
54,British Columbia Historical Newspapers,,n,'1919-12-06,'1919-12-11,Grace Methodist Church schoolroom,"Cumberland, British Columbia, Canada",The Cumberland Islander,Event is a Conundrum tea,The Ladies' Aid of Grace Methodist Church,,25 cents,,R_31,,,,Cumberland, British Columbia, Canada,49.6184754,-125.0319702
55,British Columbia Historical Newspapers,,n,'1902-08-28,'1902-08-25,Clinton Ave,"Revelstoke, British Columbia, Canada",The Revelstoke Herald,Contains a joke-riddle connected to slavery,,,,,R_47,,,,Revelstoke, British Columbia, Canada,50.998045,-118.1956709
56,British Newspaper Archives,,No,'1914-02-06,'1914-01-31,"""At home"" supper (?)","Todmorden, Yorkshire, England",Todmorden & District News,,Bridge-Street Christian Endeavour Society,Mr and Mrs Crabtree,,£2.00,R_420,,,,Todmorden, Yorkshire, England,53.7137251,-2.097753
57,British Newspaper Archives,,No,'1943-11-04,,,"Newcastle, Northumberland, England",Newcastle Evening Chronicle,,Alnmouth Women's Insitute,Mrs Warwick and Mrs Nelson,,,R_422,,,,Newcastle, Northumberland, England,54.9773787,-1.610224354
58,British Newspaper Archives,,No,'1906-02-07,'1906-02-05,Asembly Hall,"Wigan, Lancashire, England",Wigan Observer and District Advertiser ,,Methodist Free Church Young People's Institute,,,,R_419,,,,Wigan, Lancashire, England,53.6108129,-2.630459
59,British Newspaper Archives,,No,'1931-11-06,'1931-10-31,Salem School,"Nelson, Lancashire, England",Nelson Leader,,"Mr Percy Valey, for ""church funds""",Mr Percy Valey,,,R_421,,,,Nelson, Lancashire, England,53.8363428,-2.2116469
60,British Newspaper Archives,,No,'1901-01-04,'1900-12-28,Bamford Congregational School,"Heywood, Lancashire, England",Heywood Advertiser,"Part of a larger event, total revenue is for the whole event",Bamford Congregational School,Mr. RH Holt,,£17 total,R_398,,,,Heywood, Lancashire, England,53.769597,-2.7555614
61,British Newspaper Archives,,No,'1915-12-15,'1915-12-11,Zion Baptist Church,"Rochdale, Lancashire, England",Rochdale Observer ,,Zion Baptist Church,Rev. A. Russel Tomlin,,,R_390,,,,Rochdale, Lancashire, England,53.6622065,-2.2903417
62,British Newspaper Archives,,No,'1938-12-15,'1938-12-13,Church Lane Methodist Schoolroom,"Banbury, Oxfordshire, England",Banbury Advertiser,Proceeds from the supper and a collection are in aid of Trust funds,Ladies of the [Methodist] Church,,,,R_383,,,,Banbury, Oxfordshire, England,52.0601807,-1.3402795
63,British Newspaper Archives,,No,'1916-02-05,'1910-01-19,United Methodist Church,"Rochdale, Lancashire, England",Rochdale Observer ,£13 15s raised by a chocolate club,Ladies Guild of the United Methodist Church,,,,R_409,,,,Rochdale, Lancashire, England,53.6622065,-2.2903417
64,British Newspaper Archives,"""largely attended""",No,'1913-03-14,'1913-03-08,Hope School,"Todmorden, Yorkshire, England",Todmorden & District News,,Hope Church,"""Conundrum Warbles""",,£10.00,R_401,,,,Todmorden, Yorkshire, England,53.7137251,-2.097753
65,British Newspaper Archives,"""large attendance""",No,'1935-10-26,,Schoolroom,"Tewkesbury, Gloucestershire, England","The Tewkesbury Register, and Agricultural Gazette",,Winchcomb Wesley Guild,,,,R_427,,,,Tewkesbury, Gloucestershire, England,51.9937857,-2.1549574
66,British Newspaper Archives,"""very large""",No,'1913-12-11,'1913-12-03,Belle Green Schools,"Wigan, Lancashire, England",Wigan Observer and District Advertiser ,"Mentioned again on 1913-12-20, text almost identical; PDF not added.",Belle Green Mission,,,,R_400,,,,Wigan, Lancashire, England,53.6108129,-2.630459
67,British Newspaper Archives,,No,'1910-10-21,'1910-10-15,School at Cross-Lane,"Todmorden, Yorkshire, England",Todmorden & District News,,Ladies' Auxilary of the Missionary Society,,,£3.00,R_408,,,,Todmorden, Yorkshire, England,53.7137251,-2.097753
68,British Newspaper Archives,,No,'1892-03-25,'1892-03-28,"Wesleyan School, Hill-street, Heywood","Heywood, Lancashire, England",Heywood Advertiser,,Young Men's Class [Wesleyan School],WM Booth,"1s each, half price for children under 12",,R_399,,,,Heywood, Lancashire, England,53.769597,-2.7555614
69,British Newspaper Archives,>100,No,'1909-02-13,'1909-01-27,Ranter?,"Wigan, Lancashire, England",Wigan Observer and District Advertiser ,,"Independent Methodists, New Springs",,,,R_406,,,,Wigan, Lancashire, England,53.6108129,-2.630459
70,British Newspaper Archives,,No,'1926-12-04,'1926-12-01,United Methodist Church,"Burnley, Lancashire, England",Burnley Express,,Ladies of the United Methodist Church,,,,R_393,,,,Burnley, Lancashire, England,53.7907262,-2.2439196
71,British Newspaper Archives,"""good attendance""",No,'1924-10-04,'1924-10-01,,"Tamworth, Staffordshire, England",Tamworth Herald ,,Young Ladies' Guild in connection with the United Methodist Church,Mrs. S. Barlow,,,R_386,,,,Tamworth, Staffordshire, England,52.6345819,-1.6948438
72,British Newspaper Archives,"""large attendance""",No,'1912-12-06,'1912-12-04,Leigh Primitive Methodist School,"Leigh, Lancashire, England",Leigh Chronicle and Weekly District Advertiser ,,Leigh Primitive Methodist Church,Mrs Jeff,,,R_418,,,,Leigh, Lancashire, England,53.7768013,-2.3186245
73,British Newspaper Archives,130,No,'1912-12-06,'1912-11-30,Glazebury Primitive Method School,"Leigh, Lancashire, England",Leigh Chronicle and Weekly District Advertiser ,"Part of a ""cobweb social""",Ladies [of Glazebury Primitive Method School],Miss Jeff,,,R_403,,,,Leigh, Lancashire, England,53.7768013,-2.3186245
74,British Newspaper Archives,,No,'1900-10-17,'1900-10-10,Hope Hall,"Wigan, Lancashire, England",Wigan Observer and District Advertiser ,,Wigan Temperance and Rescue Mission,,,,R_416,,,,Wigan, Lancashire, England,53.6108129,-2.630459
75,British Newspaper Archives,,No,'1912-10-17,'1912-10-12,Primary department of the Primitive Methodaist Sunday School,"Wigan, Lancashire, England",Wigan Observer and District Advertiser ,"Mentioned again on 1912-10-19, didn't save PDF of the second. Text is nearly identitical.",Primitive Methodist Sunday School,,,,R_385,,,,Wigan, Lancashire, England,53.6108129,-2.630459
76,British Newspaper Archives,,No,'1910-10-19,,Exchange Hall,"Grantham, Lincolnshire, England",Grantham Journal,Funds raised for a vicarage,,"Mrs Firth, Ms Lee, Miss Meads",,n/a ,R_424,,,,Grantham, Lincolnshire, England,52.9133829,-0.6426582
77,British Newspaper Archives,,No,'1909-01-29,'1909-01-27,Cook-street Church,"Leigh, Lancashire, England",Leigh Chronicle and Weekly District Advertiser ,,Cook-street School,,,£2.00,R_389,,,,Leigh, Lancashire, England,53.7768013,-2.3186245
78,British Newspaper Archives,,No,'1900-12-08,,,"Cheltenham, Gloucestershire, England",Cheltenham Chronicle,"Unclear if this is an event. It discusses the practice, and provides examples of some courses on the menu but no date or specific event referenced.",,,,,R_425,"Examples mentioned: ""An old sailor"" represents salt, ""acids"" lemonade, ""a lady's coiffure"" a bun, ""seashore delights"" sandwiches, ""Neptune's trident"" a fork.",,,Cheltenham, Gloucestershire, England,51.8995685,-2.0711559
79,British Newspaper Archives,"""excellent""",No,'1916-11-29,'1916-11-25,Sunday school,"Burnley, Lancashire, England",Burnley Express,,Wesley Guild,Rev. F. E. Walker,,,R_394,,,,Burnley, Lancashire, England,53.7907262,-2.2439196
80,British Newspaper Archives,,Yes,'1907-03-29,'1907-03-26,Schoolroom ,"Coventry, Warwickshire, England",Coventry Herald,"Includes some examples of menu items; referred to as a Conundrum tea. Mentioned again in the Coventry Evening Telegraph, 1907-03-27",Warwick Road Literary and Debating Society,Mr. O.S. Read,,,R_426,"For instance, the beginning of things? -tea; a good spread for a start? -bread and butter; hidden tears? -onions; there's more in this than meets the eye? -sausage roll.",,,Coventry, Warwickshire, England,52.34277875,-1.5796559
81,British Newspaper Archives,"""very good""",No,'1914-03-28,'1914-04-19,"Central Hall, Station-road, Wigan","Wigan, Lancashire, England",Wigan Observer and District Advertiser ,,Ladies committee of the Sunday School Union,,,"""succinctly satisfactory""",R_391,,,,Wigan, Lancashire, England,53.6108129,-2.630459
82,British Newspaper Archives,"""well attended""",No,'1911-04-07,'1911-04-01,Crimsworth Wesleyan School,"Todmorden, Yorkshire, England",Todmorden & District News,,Foster-lane Wesleyan Church,Miss Edith Gotten,,,R_384,,,,Todmorden, Yorkshire, England,53.7137251,-2.097753
83,British Newspaper Archives,,No,'1907-02-23,'1907-02-20,YMCA,"Wigan, Lancashire, England",Wigan Observer and District Advertiser ,,YMCA,,,,R_417,,,,Wigan, Lancashire, England,53.6108129,-2.630459
84,British Newspaper Archives,~100,No,'1911-03-24,'1911-03-18,Cook-street School,"Leigh, Lancashire, England",Leigh Chronicle and Weekly District Advertiser ,,Cook-street School,,,£3. 12s. 21d.,R_387,,,,Leigh, Lancashire, England,53.7768013,-2.3186245
85,British Newspaper Archives,,No,'1911-01-28,,Bedminster YMCA,"Horfield, Bristol, England",Horfield and Bishopston Record and Montepelier & District Free Press,Conundrum social,,,,,R_432,,,,Horfield, Bristol, England,51.4918563,-2.5800957
86,British Newspaper Archives,,No,'1934-10-27,'1934-10-23,Schoolroom,"Tewkesbury, Gloucestershire, England","The Tewkesbury Register, and Agricultural Gazette",Conundrum social,Wesley Guild,,,,R_429,,,,Tewkesbury, Gloucestershire, England,51.9937857,-2.1549574
87,British Newspaper Archives,,No,'1913-03-14,'1913-03-08,Hope Baptist School,"Todmorden, Yorkshire, England",Tomorden Advertiser and Hebden Bridge Newsletter,,Ladies [of Hope Baptist School],,,£10 10s,R_411,,,,Todmorden, Yorkshire, England,53.7137251,-2.097753
88,British Newspaper Archives,,No,'1906-01-27,'1906-01-28,"Methodist Free Church, king Street","Wigan, Lancashire, England",Wigan Observer and District Advertiser ,,"Methodist Free Church, king Street",Rev. G. Dixon Thompson,6d. Each,,R_407,,,,Wigan, Lancashire, England,53.6108129,-2.630459
89,British Newspaper Archives,"""large attendance""",No,'1909-11-19,'1909-11-16,Bright Street Mission,"Leigh, Lancashire, England",Leigh Chronicle and Weekly District Advertiser ,Conundrum social,Brotherhood Choral Society,,,,R_430,,,,Leigh, Lancashire, England,53.7768013,-2.3186245
90,British Newspaper Archives,"""large gathering""",No,'1915-04-17,'1915-04-10,Dearnley Spiritual Temple,"Rochdale, Lancashire, England",Rochdale Observer ,,Dearnley Spiritualists,,,,R_402,,,,Rochdale, Lancashire, England,53.6622065,-2.2903417
91,British Newspaper Archives,>100,No,'1914-01-21,'1914-01-17,Smallbridge Congregational Sunday school,"Rochdale, Lancashire, England",Rochdale Observer ,,Ladies of the Smallbridge Congregational Sunday school,,,,R_395,,,,Rochdale, Lancashire, England,53.6622065,-2.2903417
92,British Newspaper Archives,,No,'1915-11-10,'1915-11-06,Baptist Sunday School,"Burnley, Lancashire, England",Burnley Express,Conundrum social,Baptist Sunday School,,,£6 15s,R_428,,,,Burnley, Lancashire, England,53.7907262,-2.2439196
93,British Newspaper Archives,,No,'1916-12-29,'1919-12-25,Springside Wesleyan Sunday School,"Todmorden, Yorkshire, England",Todmorden & District News,,Springside Wesleyan Sunday School,Mr James Whitaker,,,R_405,,,,Todmorden, Yorkshire, England,53.7137251,-2.097753
94,British Newspaper Archives,,Yes,'1903-09-26,,West Bowling Rehoboth? P.M Chapel,"Bradford, Yorkshire, England",Bradford Daily Telegraph,,,,,,R_410,"Scandal, invigorator, spangled net, roast pigaroni, life buoy, feathers, organettes, scarlet runners, De-wet, Tom Paul, luscious vi-valves, slippers, hors d’oeuvres, trotters, Paulette, all run, mud bone buttons.",,,Bradford, Yorkshire, England,53.7944229,-1.7519186
95,British Newspaper Archives,,Yes,'1899-01-21,'1899-01-18,King Street Baptist School,"Wigan, Lancashire, England",Wigan Observer and District Advertiser ,"Menu and some solutions provided; Mentioned a second time on 1899-01-35. PDF not added, text almost identical",King Street Baptist School,,,£30 expected,R_396,"Menu: Liquids (to be shaken before taken), ?, ? ; solids (? Well and introduces in the usual way as long as he pain continues), Darren, staff of life, woman's weapon, go-between's (brown or white), ?, ? In the wood, sweetbreads, ? (to be taken with caution), kiss-bits, ?; .....",,,Wigan, Lancashire, England,53.6108129,-2.630459
96,British Newspaper Archives,"""large""",No,'1906-09-21,'1906-09-15,"UMFC, Bagslate Schoolroom","Heywood, Lancashire, England",Heywood Advertiser,,"UMFC, Bagslate, in connection with Sunday School Football Club",Mr P Heap ,,,R_404,,,,Heywood, Lancashire, England,53.769597,-2.7555614
97,British Newspaper Archives,,No,'1902-03-02,'1902-03-02,Chapel in Manchester Road district,"Bradford, Yorkshire, England",Bradford Daily Telegraph,,,,,,R_415,,,,Bradford, Yorkshire, England,53.7944229,-1.7519186
98,British Newspaper Archives,,No,'1911-01-13,'1911-01-14,"Salem School room, Hebden Bridge","Todmorden, Yorkshire, England",Todmorden & District News,Admnission to the event costs 3d. Different than the price of the conundrum supper,British Women's Temperance Association,,"""reasonable charges""",,R_397,,,,Todmorden, Yorkshire, England,53.7137251,-2.097753
99,British Newspaper Archives,,No,'1913-01-24,'1913-01-18,Greentown Wesleyan school,"Heywood, Lancashire, England",Heywood Advertiser,proceeds to aid the Million Penny Scheme,Georgetown Wesleyan Mission,Mr James Butterworth,,,R_412,,,,Heywood, Lancashire, England,53.769597,-2.7555614
100,British Newspaper Archives,"""well patronized""",No,'1916-11-16,'1916-11-11,Wesleyan Schoolroom,"Wigan, Lancashire, England",Wigan Observer and District Advertiser ,Conundrum social,"Wesleyan Centenary Effort, 2nd Class Young Ladies","Miss Irene Cowling, Miss Alice Pendlebury, Miss Nellie Winnard, Miss Lily Blackledge",,,R_431,,,,Wigan, Lancashire, England,53.6108129,-2.630459
101,British Newspaper Archives,,No,'1913-11-19,'1913-11-15,"""At home"" supper (?)","Burnley, Lancashire, England",Burnley Express,,Jubilee Primitive Methodist Church,Misses C. Cook and E. Bramald,,,R_414,,,,Burnley, Lancashire, England,53.7907262,-2.2439196
102,British Newspaper Archives,,No,'1926-04-22,,Tower Street Cong. Schoolroom,"Hartlepool, Durham, England",Hartlepool Northern Daily Mail ,,B.W.T.A.,,,,R_388,,,,Hartlepool, Durham, England,54.6857276,-1.2093696
103,British Newspaper Archives,"""large attendance""",No,'1912-11-15,'1912-11-09,Plank Lane UMC,"Leigh, Lancashire, England",Leigh Chronicle and Weekly District Advertiser ,Conundrum social,United Methodist Church,,,,R_433,,,,Leigh, Lancashire, England,53.7768013,-2.3186245
104,British Newspaper Archives,,No,'1908-10-31,'1908-10-28,Schoolroom [of the United Methodist Church],"Tamworth, Staffordshire, England",Tamworth Herald ,,United Methodist Church,Rev. F. Cooper,,,R_423,,,,Tamworth, Staffordshire, England,52.6345819,-1.6948438
105,British Newspaper Archives,>100,No,'1902-10-31,'1902-10-28,Bethel-street school,"Heywood, Lancashire, England",Heywood Advertiser,,Ladies' Missionary Auxillary of Bethel-street,Rev. Dr. and Mrs Irving,,,R_413,,,,Heywood, Lancashire, England,53.769597,-2.7555614
106,British Newspaper Archives,,No,'1910-04-22,'1910-04-16,Glazebury Westleyan School,"Leigh, Lancashire, England",Leigh Chronicle and Weekly District Advertiser ,,Ladies of the Christian church,,,,R_392,,,,Leigh, Lancashire, England,53.7768013,-2.3186245
107,LOC Conundrum Social,,,'1893-05-18,,,"Omaha, Nebraska",Omaha daily bee,,,,,,,,,,Omaha, Nebraska, U.S.,41.2587459,-95.9383758
108,LOC Conundrum Social,,,'1903-02-09,,,"Newport, Vermont",Orleans County monitor,,Society of Christian Endeavor,,,,,,,,Newport, Vermont, U.S.,44.936127,-72.204895
109,LOC Conundrum Social,,,'1893-05-28,,Residence of George Douglass in the valley,"Anaconda, Montana",The Anaconda standard,,,,,,,,,,Anaconda, Montana, U.S.,46.128794,-112.942369
110,LOC Conundrum Social,,,'1898-02-15,,Residence of Chas. Anderson,"Locust, Michigan",The Hillsdale standard,,"Acker corps, W.R.C., No. 7",,,,,,,,Locust, Michigan, U.S.,42.980608,-82.45453
111,LOC Conundrum Social,,,'1901-05-26,,Central hall,"St. Paul, Minnesota",The Saint Paul globe,,,,,,,,,,St. Paul, Minnesota, U.S.,44.9504037,-93.1015026
112,LOC Conundrum Social,,,'1897-01-29,,Residence of Stone and Clark,"Halifax, Vermont",Vermont phoenix,,Young People’s society of Christian Endeavor,,,,,,,,Halifax, Vermont, U.S.,42.7698049,-72.7453716
113,LOC Conundrum Social,,,'1897-11-12,,Residence of Mr. and Mrs. h.N. Harding on Second street northeast,"Little Falls, Minnesota",Little Falls weekly transcript,Same event is referenced in the issue from October 29,Y.P.B.C. of the Congregational church,,,,,,,,Little Falls, Minnesota, U.S.,45.9763545,-94.3625024
114,LOC Conundrum Social,,,'1914-06-19,,Vestry,"Waitsfield, Vermont",The Barre daily times,,B.Y.P.U. of the First Baptist church,,,,,,,,Waitsfield, Vermont, U.S.,44.192132,-72.8227076
115,LOC Conundrum Social,,,'1899-05-22,,,"St. Paul, Minnesota",The Saint Paul globe,,,,,,,,,,St. Paul, Minnesota, U.S.,44.9504037,-93.1015026
116,LOC Conundrum Social,,,'1906-11-13,,M.E. parsonage,"Cabot, Vermont",The Barre daily times,,Young Ladies of the First Christian church,,,,,,,,Cabot, Vermont, U.S.,44.4032807,-72.310107
117,LOC Conundrum Social,,,'1895-06-08,,"Lawn of Geo. W. Miller, corner Eighth and Court streets","The Dalles, Oregon",The Dalles times-mountaineer,Same event is referenced in the issue from June 4 and June 5,,,,,,,,,The Dalles, Oregon, U.S.,45.6015056,-121.1841587
118,LOC Conundrum Social,,,'1893-05-20,,Congregational hall,"Santa ana, California",The herald,,"Delta Grange, No. 181",,,,,,,,Santa ana, California, U.S.,33.7494951,-117.8732213
119,LOC Conundrum Social,,,'1912-06-20,,Hoffman hall,"Lynden, Washington",The Lynden tribune,,Y.P.S.C.E. of the Presbyterian church,,,,,,,,Lynden, Washington, U.S.,48.9466041,-122.4569315
120,LOC Conundrum Social,,,'1894-06-07,,Rooms over Day and Nichols store,"Worthington, Minnesota",The Worthington advance,,Ladies of the Dorcas society,,,,,,,,Worthington, Minnesota, U.S.,43.6205056,-95.5956434
121,LOC Conundrum Social,,,'1897-01-29,,Congregational church,"McCook, Nebraska",The McCook tribune,,Y.P.S.C.E. of the Congregational church,,,,,,,,McCook, Nebraska, U.S.,40.201542,-100.625654
122,LOC Conundrum Social,,,'1895-02-14,,Residence of Judge Burnett,"Corvallis, Oregon",The Corvallis gazette,Same event is referenced in the issue from February 21,,,,,,,,,Corvallis, Oregon, U.S.,44.5645659,-123.2620435
123,LOC Conundrum Social,,,'1895-12-28,,Methodist church,"Red Lodge, Montana",Red Lodge picket,,,,,,,,,,Red Lodge, Montana, U.S.,45.1857782,-109.2468211
124,LOC Conundrum Social,,,'1878-06-01,,,"Chicago, Illinois",Chicago daily tribune,Highly interesting because of the extremely early date,The Caspian Lake grange,,,,,,,,Chicago, Illinois, U.S.,41.8755616,-87.6244212
125,LOC Conundrum Social,,,'1916-05-17,,Caspian Lake grange hall,"Greensboro, Vermont",Orleans County monitor,,Christian Endeavor society,,,,,,,,Greensboro, Vermont, U.S.,44.5768593,-72.2960634
126,LOC Conundrum Social,,,'1897-06-01,,,"Paris, Maine",Oxford Democrat,,Ladies of the United Presbyterian church,,,,,,,,Paris, Maine, U.S.,44.259954,-70.500641
127,LOC Conundrum Social,,,'1898-05-18,,"Residence of Mrs. Augustus C. Scott, corner north tenth and B streets","Richmond, Indiana",Richmond daily palladium,,"Silver Star Lodge, No. 20, I.O.G.T., of Tenleytown, D.C.",,,,,,,,Richmond, Indiana, U.S.,39.8286897,-84.8898521
128,LOC Conundrum Social,,,'1902-05-16,,,"Georgetown, Washington D.C.",Evening star,,,,,,,,,,Georgetown, Washington D.C., U.S.,38.9051994,-77.062785
129,LOC Conundrum Social,,,'1908-01-29,,Liberty Pole school house,"Viroqua, Wisconsin",Vernon County censor,,Ladies’ Aid of the Baptist society,,,,,,,,Viroqua, Wisconsin, U.S.,43.5569174,-90.8887413
130,LOC Conundrum Social,,,'1910-01-31,,Baptist vestry,"Groton, Vermont",The Barre daily times,Same event is referenced in the issue from February 9,Miss Mary Wagoner’s Sunday School class,,,,,,,,Groton, Vermont, U.S.,44.210757,-72.195969
131,LOC Conundrum Social,,,'1899-11-11,,Residence of Miss Mary Wagoner,"Akron, Ohio",Akron daily Democrat,,Up Streamer class of Young Men in the Sunday School,,,,,,,,Akron, Ohio, U.S.,41.083064,-81.518485
132,LOC Conundrum Social,,,'1911-11-07,,Presbyterian church basement,"Redwood Falls, Minnesota",The Redwood gazette,Same event is referenced twice in the issue from November 14,Christian Endeavor of the Presbyterian church,,,,,,,,Redwood Falls, Minnesota, U.S.,44.5393721,-95.1164478
133,LOC Conundrum Social,,,'1902-02-05,,Residence of George Hatfield,"Hallstead, Pennsylvania",The Scranton tribune,Same event is referenced in the issue from February 8,Epworth league,,,,,,,,Hallstead, Pennsylvania, U.S.,41.9612241,-75.7430871
134,LOC Conundrum Social,,,'1914-02-05,,Methodist hall,"Ashley Falls, Connecticut",Connecticut western news,Same event is referenced in the issue from January 29,Young ladies of the Presbyterian church,,,,,,,,Ashley Falls, Connecticut, U.S.,42.0474107,-73.327922
135,LOC Conundrum Social,,,'1897-07-24,,Presbyterian chapel,"Las Vegas, New Mexico",Las Vegas daily optic,,Y.P.S.C.E. of the Congregational church,,,,,,,,Las Vegas, New Mexico, U.S.,35.5939325,-105.2238969
136,LOC Conundrum Social,,,'1898-02-04,,Vestry of the church,"Shelton, Connecticut",The Newtown bee,,Lansing Union Sunday School,,,,,,,,Shelton, Connecticut, U.S.,41.3164856,-73.0931641
137,LOC Conundrum Social,,,'1905-07-12,,Residence of Miss May Wiseman,"Lansing, Minnesota",Mower County transcript,,Senior Philathea class of the M.E. church,,,,,,,,Lansing, Minnesota, U.S.,43.7452402,-92.9701918
138,LOC Conundrum Social,,,'1919-06-06,,Town hall,"Medina, Ohio",The Medina sentinel,,Young people of the Baptist church,,,,,,,,Medina, Ohio, U.S.,41.1000764,-81.9382517
139,LOC Conundrum Social,,,'1901-02-15,,Residence of A.K. McLuney,"Alma, Michigan",Alma record,,Ladies’ Aid society,,,,,,,,Alma, Michigan, U.S.,43.37892,-84.659727
140,LOC Conundrum Social,,,'1898-02-04,,Pearson home on Miller street,"Honolulu, Hawaii",Evening bulletin,"Same event is referenced in the issue from February 3 and The Pacific commercial advertiser, February 04, 1898",,,,,,,,,Honolulu, Hawaii, U.S.,21.304547,-157.8556764
141,LOC Conundrum Social,,,'1892-06-15,,Residence of C.H. Newman,"Lansing, Minnesota",Mower County transcript,,,,,,,,,,Lansing, Minnesota, U.S.,43.7452402,-92.9701918
142,LOC Conundrum Social,,,'1906-02-06,,Methodist parsonage,"Honolulu, Hawaii",The Pacific commercial advertiser,,Junion Builders of the Christian church,,,,,,,,Honolulu, Hawaii, U.S.,21.304547,-157.8556764
143,LOC Conundrum Social,,,'1898-02-04,,Residence of Mr. H.W. Pobst,"Jeffersonville, Virginia",Clinch Valley news,,Endeavor society of the Reformed church,,,,,,,,Jeffersonville, Virginia, U.S.,38.285225,-85.725052
144,LOC Conundrum Social,,,'1894-11-09,,Residence of Jennie L. Bottorff,"Plymouth, Indiana",Marshall County independent,,,,,,,,,,Plymouth, Indiana, U.S.,41.3436555,-86.3097278
145,LOC Conundrum Social,,,'1896-02-07,,Residence of F.W. Waldron,"Oakes, North Dakota",Oakes weekly Republican,Contains eBOF,Good Templars,,,,,Menu 1. Cool Impudence 2. Greased Staff 3. Mixed Beverages 4. Woman's Weapons 5. Group of Islands 6. What Successful Candidates did after last Election 7. Descended from a domestic 8. Acids Solidified 9. Backbone of History 10. New England Necessity 11. Conglomerate Sweetness 12. Elevated Felines 13. An Eastern Delicacy,,,Oakes, North Dakota, U.S.,46.138579,-98.090379
146,LOC Conundrum Social,,,'1898-06-16,,,"Granite City, Vermont",Barre evening telegram,,Y.P.S.C.E.,,,,,,,,Granite City, Vermont, U.S.,43.4834036,-72.8951025
147,LOC Conundrum Social,,,'1893-11-10,,,"Morris, Connecticut",The Newtown bee,CS was postponed,Daughters of St. George,,,,,,,,Morris, Connecticut, U.S.,41.6842633,-73.1962245
148,LOC Conundrum Social,,,'1897-06-17,,"Lawn in front of St. George’s pro-cathedral, Linwood and Troost avenues","Kansas City, Missouri",Kansas City journal,,Order of St. Luke,,,,,,,,Kansas City, Missouri, U.S.,39.100105,-94.5781416
149,LOC Conundrum Social,,,'1906-05-29,,Reed’s hall,"Clarksburg, West Virginia",The daily telegram,,Young Women’s Christian Association,,,,,,,,Clarksburg, West Virginia, U.S.,39.2806451,-80.3445341
150,LOC Conundrum Social,,,'1897-11-11,,Rooms of the Young Women’s Christian Association,"Indianapolis, Indiana",The Indianapolis journal,,Y.P.S. of Christian Endeavor,,,,,,,,Indianapolis, Indiana, U.S.,39.7683331,-86.1583502
151,LOC Conundrum Social,,,'1894-11-11,,Presbyterian church,"Colton, California",The herald,,Epworth league,,,,,,,,Colton, California, U.S.,34.0739016,-117.3136547
152,LOC Conundrum Social,,,'1899-05-31,,M.E. church basement,"Jermyn OR Mayfield, Pennsylvania",The Scranton tribune,,,,,,,,,,Jermyn OR Mayfield, Pennsylvania, U.S.,41.5357643,-75.5464137
153,LOC Conundrum Social,,,'1894-02-09,,Residence of Mrs. Asa Dodd,"Ethan, South Dakota",The Mitchell capital,,Christian Endeavor society,,,,,,,,Ethan, South Dakota, U.S.,43.5469375,-97.98310592
154,LOC Conundrum Social,,,'1894-11-01,,"Residence of Miss Wilson, corner of South Second and Buckeye","Abilene, Kansas",Abilene weekly reflector,,Christian Endeavor society of Delaware Avenue church,,,,,,,,Abilene, Kansas, U.S.,38.917252,-97.21377
155,LOC Conundrum Social,,,'1896-11-12,,"Residence of C.H. Cantwell, No. 1103 West Fourth street","Wilmington, Delaware",Evening journal,,Columbian Temple,,,,,,,,Wilmington, Delaware, U.S.,39.7459468,-75.546589
156,LOC Conundrum Social,,,'1894-06-18,,,"San Francisco, California",The morning call,,,,,,,,,,San Francisco, California, U.S.,37.7792808,-122.4192363
157,LOC Conundrum Social,,,'1909-02-02,,Residence of Mr. and Mrs. C.H. Newton,"Harwood, North Dakota",The Fargo forum and daily republican,,Young Ladies Mission Circle,,,,,,,,Harwood, North Dakota, U.S.,46.979412,-96.880638
158,LOC Conundrum Social,,,'1896-07-02,,Congregational church parlors,"Kent, Connecticut",Connecticut western news,,Ladies of the Baptist church,,,,,,,,Kent, Connecticut, U.S.,41.724646,-73.4770859
159,LOC Conundrum Social,,,'1910-02-02,,Vestry,"Groton, Vermont",St. Johnsbury Caledonian,,Miss Mattie Wright AND Mr. Trary,,,,,,,,Groton, Vermont, U.S.,44.210757,-72.195969
160,LOC Conundrum Social,,,'1896-02-08,,Garden Valley lodge,"Phoenix, Arizona",Arizona republican,Conundrum ‘battle’ where they fire conundrums across from each other,Epworth league,,,,,,,,Phoenix, Arizona, U.S.,33.4485866,-112.0773456
161,LOC Conundrum Social,,,'1897-11-02,,M.E. church,"Wheeling, West Virginia",The Wheeling daily intelligencer,,,,,,,,,,Wheeling, West Virginia, U.S.,40.0639616,-80.7209149
162,LOC Conundrum Social,,,'1893-06-09,,Christian church,"Omaha, Nebraska",Omaha daily bee,,Rebekahs,,,,,,,,Omaha, Nebraska, U.S.,41.2587459,-95.9383758
163,LOC Conundrum Social,,,'1906-02-08,,I.OO.F. hall,"Grand Rapids, Wisconsin",Wood County reporter,Contains several eBOF dishes; same event is referenced in the issue from February 1,,,,,,"Broken staff, an inhabitant of the ark, a fruit compound, every body's delight fried, tree cake, a fruit of the vine, et. Etc.",,,Grand Rapids, Wisconsin, U.S.,42.922927,-85.688559
164,LOC Conundrum Social,,,'1902-02-15,,,"Wilmington, Delaware",Evening journal,,King’s Daughters and Sons of Elm Park church,,,,,,,,Wilmington, Delaware, U.S.,39.7459468,-75.546589
165,LOC Conundrum Social,,,'1895-06-28,,Lecture room,"Scranton, Pennsylvania",The Scranton tribune,,,,,,,,,,Scranton, Pennsylvania, U.S.,41.4086874,-75.6621294
166,LOC Conundrum Social,,,'1892-05-14,,Methodist church,"Livingston, Montana",The Livingston enterprise,,Y.P.S.C.E.,,,,,,,,Livingston, Montana, U.S.,45.662436,-110.56104
167,LOC Conundrum Social,,,'1900-01-13,,Congregational church,"Pullman, Washington",Pullman herald,,United Workers,,,,,,,,Pullman, Washington, U.S.,46.7304268,-117.173895
168,LOC Conundrum Social,,,'1898-03-11,,Residence of D.J. Hitckcock,Brookline,Vermont phoenix,,,,,,,,,,,,,42.3317642,-71.1211635
169,LOC Conundrum Social,,,'1920-03-13,,Residence of Mrs. Herr on Hyde street,"Canterbury Green, Connecticut",Norwich bulletin,,,,,,,,,,Canterbury Green, Connecticut, U.S.,41.6984319,-71.9711853
170,LOC Conundrum Social,,,'1900-03-14,,Library rooms,"St. Johnsbury, Vermont",St. Johnsbury Caledonian,,Epworth league,,,,,,,,St. Johnsbury, Vermont, U.S.,44.4192249,-72.0150951
171,LOC Conundrum Social,,,'1904-03-14,,,"Barton Landing, Vermont",Orleans County monitor,,Frances Hetzler Y.,,,,,,,,Barton Landing, Vermont, U.S.,44.688655,-73.3467991
172,LOC Conundrum Social,,,'1913-03-14,,Residence of Mrs. Marshall Taylor,"Westminster, Maryland",The Democratic advocate,,Y.P.S.C.E. of Westminster Presbyterian church,,,,,,,,Westminster, Maryland, U.S.,39.5752639,-76.9959277
173,LOC Conundrum Social,,,'1892-03-15,,"Westminster Presbyterian church, Sixth and L","Sacramento, California",The record-union,Contains eBOF; same event is referenced in the issue from March 16,Y.P.S.C.E.,,,,,"Supper bill of fare: An Unruly Member, Pride of Boston, April Blossoms, A Young Man's Sweetheart, Impertinences, Fruit of the Vine, Tree Cake, Spring's Offering, Lay of the Last Minstrel, Boston's Overthrow, One of Noah's Sons, No Grounds for Complaint, Prairie Flower, Raised in Town, Tramp Cake, Frozen Tree, What Some People Don't Know, Cake Hard to Beat.",,,Sacramento, California, U.S.,38.5815719,-121.4943996
174,LOC Conundrum Social,,,'1905-01-07,,First Presbyterian church,"Clarksburg, West Virginia",The daily telegram,Same event is referenced in the issue from January 5,Ladies of the Christian church,,,,,,,,Clarksburg, West Virginia, U.S.,39.2806451,-80.3445341
175,LOC Conundrum Social,,,'1903-01-14,,Church parlors,"Phoenix, Arizona",Arizona republican,Contains very interesting eBOF in poem form / invitation in poem form,C.E. society,,,,,"God made Adam out of Dust, / But thought it best to make me first: / So I was made before the man. / To answer God’s most holy plan. // My body He did make complete / But, without arms, legs or feet, / My way and actions did control, / Yet I was made without a soul. // a living thing I then became, / And Adam gave to me my name. / Then from His presence I withdrew, / And more of Adam never knew // I did my Maker’s laws obey / 1'rom then I never went astray. / Thousands of miles I run, I fear, /But seldom on the earth appear. // But God In me did something see / And put a living soul in me / A soul of me my God did claim / And took from me that should again. // But when from me that soul was fled / I was the same as when first made, / And without hands or feet or soul / I travel now from pole to pole, // I labor hard by day and night / to fallen men I give much light: / Thousands of people, young and old, / Will by my death great light behold. // No fear of death can trouble me, / For happiness I cannot see. / To heaven I shall never go. / Nor to the grave nor hell below. // The scriptures I cannot believe, / If right from wrong I can’t conceive. / Although my name therein is found / They are to me an empty sound.",,,Phoenix, Arizona, U.S.,33.4485866,-112.0773456
176,LOC Conundrum Social,,,'1900-03-15,,Residence of L.C. Fisher,"Cabot, Vermont",Burlington weekly free press,,Golden Rule society,,,,,,,,Cabot, Vermont, U.S.,44.4032807,-72.310107
177,LOC Conundrum Social,,,'1895-01-05,,Congregational church,"Pullman, Washington",Pullman herald,"Same event is referenced twice in the same issue and in the issue from January 12, 1895",Ladies’ Union Aid,,,,,,,,Pullman, Washington, U.S.,46.7304268,-117.173895
178,LOC Conundrum Social,,,'1917-03-15,,M.E. church parlors,"Williston, Vermont",Burlington weekly free press,,,,,,,,,,Williston, Vermont, U.S.,44.4374044,-73.0689621
179,LOC Conundrum Social,,,'1894-03-16,,"Residence of Mrs. D.B. Miller, on the east side","Mitchell, South Dakota",The Mitchell capital,"Prize system, Conundrums were written on papers and placed in different parts of the house",,,,,,,,,Mitchell, South Dakota, U.S.,43.70953,-98.025379
180,LOC Conundrum Social,,,'1899-03-16,,Residence of D.W. Sturgeon,"Dodge City, Kansas",The Globe-republican,Contains eBOF,Ladies’ social circle,,,,,Bill of fare: 1. Helmet cake 2. Murphy mixture 3. Old hickory? 4. Circus rings 5. Vegetable mixture 6. Greased rye 7. A soft case 8. Sunnyside springs 9. Devils food 10. Crystal clear 11. Greased necessity 12. Angel's food 13. Free from odor 14. Engagement signet 15. Rex pie 16. A style of shoe 17. Love's diet 18. Edith's dislike 19. Bean soup 20. Dry paste 21. Willie's choice 22. Light substance 23. Green hawkeyes 24. Sweet mash,,,Dodge City, Kansas, U.S.,37.7527982,-100.0170787
181,LOC Conundrum Social,,,'1902-01-02,,"Residence of A.A. Barnes, of 1740 North Meridian street","Indianapolis, Indiana",The Indianapolis journal,,Columbian Hustlers (an auxiliary organization of the Court of Columbian Circle),,,,,,,,Indianapolis, Indiana, U.S.,39.7683331,-86.1583502
182,LOC Conundrum Social,,,'1904-03-18,,"Residence of Miss Rose Ducane, 311 South Second street","Marshalltown, Iowa",Evening times-Republican,,Ladies of the M.E. church,,,,,,,,Marshalltown, Iowa, U.S.,42.0442545,-92.9123388
183,LOC Conundrum Social,,,'1904-03-18,,Eakin’s hall,"Kennewick, Washington",Columbia courier,Same event is referenced in the same issue twice,Endeavor society,,,,,,,,Kennewick, Washington, U.S.,46.2083948,-119.1202072
184,LOC Conundrum Social,,,'1896-03-19,,Residence of Mr. and Mrs. Oscar Leonard,"Tolland, Connecticut",The Press,,P.S.C.E. of the Presbyterian church,,,,,,,,Tolland, Connecticut, U.S.,41.818446,-72.3562252
185,LOC Conundrum Social,,,'1905-01-05,,,"Hillsboro, Ohio",The News-Herald,,Baptist young peoiple,,,,,,,,Hillsboro, Ohio, U.S.,39.2022866,-83.611587
186,LOC Conundrum Social,,,'1905-03-10,,Church,"Pendleton, Oregon",East Oregonian,Contains eBOF; same event is referenced in the issue from March 9,Christian Endeavor society,,,,,"Bill of fare: 1. I know that some people condemn me. Yet a general favorite I am. And a host of admirers defend me At daybreak o'er all this fair land 5c 2. From the tropics I come, To cold I'm a stranger; Tho' far from home, I'm a good entertainer 10c 3. Only a letter from mother 5c 4. Pig in the wheat 5c 5. Neither coke nor fake, But a combination of the two 5c, 6. T ""hokey"" pair 5c 7. Three-fourths of the earth's surface 1c 8. A useful but decaying member: To select 1c 9. A region beyond the ""Rhine"" 2c 10. From a ""dead beat,"" or Part of a dude's outfit 1c 11. Light yellow 2c 12. The milk of human kindness 5c 12. A dry pair 2c 13. A little kid 2c 14. Fruit of the vine 5c 15. Used in digging: A letter of the alphabet 1c 16. Encompassed by the ""Rhine"" 3c 17. ""The square thing"" 1c",,,Pendleton, Oregon, U.S.,45.672075,-118.7885967
187,LOC Conundrum Social,,,'1910-01-14,,Residence of Mrs. Barrack,"Deming, New Mexico",Deming graphic,,Woman’s Aid society of the Presbyterian church,,,,,,,,Deming, New Mexico, U.S.,32.2627416,-107.7581979
188,LOC Conundrum Social,,,'1900-03-10,,Residence of Mrs. Haynes on Johnson St.,"Santa Fe, New Mexico",Santa Fe new Mexican,Same issue is referenced in the issues from March 13 and March 14,Christian Endeavor society of the church of the Covenant,,,,,,,,Santa Fe, New Mexico, U.S.,35.6869996,-105.9377997
189,LOC Conundrum Social,,,'1902-01-25,,Church lecture room,Washington D.C.,Evening star,,,,,,,,,,,, U.S.,38.8950092,-77.0365625
190,LOC Conundrum Social,,,'1919-03-01,,"Wesley school, Elk Neck","Elkton, Maryland",The Cecil Whig,,Unity Guild,,,,,,,,Elkton, Maryland, U.S.,39.6065073,-75.8330934
191,LOC Conundrum Social,,,'1894-01-25,,"Residence of Rev. J.E. Simpson, 216 Harrison St.","Omaha, Nebraska",Omaha daily bee,Same event is referenced in the issue from January 28,2nd ward Ladies’ Aid society of the Congregational church,,,,,,,,Omaha, Nebraska, U.S.,41.2587459,-95.9383758
192,LOC Conundrum Social,,,'1892-03-03,,,"Grand Rapids, Wisconsin",Wood County reporter,,Young People of the Baptist church,,,,,,,,Grand Rapids, Wisconsin, U.S.,42.922927,-85.688559
193,LOC Conundrum Social,,,'1905-03-03,,Residence of Mrs. J.G. Inglis,"McCook, Nebraska",The McCook tribune,,Baptist Aid society,,,,,,,,McCook, Nebraska, U.S.,40.201542,-100.625654
194,LOC Conundrum Social,,,'1898-03-04,,City hall,"Hot Springs, South Dakota",Hot Springs weekly star,,,,,,,,,,Hot Springs, South Dakota, U.S.,43.431646,-103.474363
195,LOC Conundrum Social,,,'1896-01-23,,Residence of Hiram Hoag,"Grand Isle, Vermont",Burlington weekly free press,,Ladies of the Christian church,,,,,,,,Grand Isle, Vermont, U.S.,44.706737,-73.3042618
196,LOC Conundrum Social,,,'1898-03-04,,Grand Army building,"Goodland, Kansas",The Goodland republic,Contains eBOF; More interesting because the entire menu is written in Shakespeare quotations,Congregational Ladies’ Aid society,,,,,"""Here's a fowl without a feather."" ""Tell me, where is fancy bred."" ""He must have a long spoon."" ""Trifles light as air."" ""Can you eat roots?"" ""Tis time I were choked on a piece of roasted cheese."" ""I was brutal to kill ? Capital a calf."" ""A groundling."" ""Good words, good cabbage."" ""In pure kindnessto his horse he buttered his hay."" ""Easy it is to eat a loaf."" ""Sweetest meat hath sourest rind."" ""We have some of the salt of our youth in us."" ""There's pippins and cheese to come."" ""Boar's head."" ""The earth hath bubbles as the water has, and these are of them."" ""A pair of very strange ?"" ""As cold as if I had swallowed snowballs."" ""Sweets to the sweet."" ""I found him under a tree like a dropped acorn"" ""Sup, fair ladies."" ""Any pretty, little, tiny kickshaws. """,,,Goodland, Kansas, U.S.,39.350833,-101.7101722
197,LOC Conundrum Social,,,'1898-01-27,,Church,"Redwood Falls, Minnesota",The Redwood gazette,Same event is referenced in the issue from February 3,Sunday School,,,,,,,,Redwood Falls, Minnesota, U.S.,44.5393721,-95.1164478
198,LOC Conundrum Social,,,'1898-06-23,,Christian church,"Cañon City, Colorado",Cañon City record,Same event is referenced in the issue from June 09,Ladies’ Aid society of the Baptist church,,,,,,,,Cañon City, Colorado, U.S.,38.4423644,-105.2224947
199,LOC Conundrum Social,,,'1903-03-05,,Vacant store room in the Andre building,"Phoenix, Arizona",Arizona republican,Contains eBOF (different from others),King’s Daughters of the First Baptist church,,,,,"Bill of fare: Golden gossip, hardshell Baptists, lovers like them, Pasific islands, neighborhood contention, spring chicken, Irish apple sauce, youth's sweetness, gilt edge, pride of Boston, upper crust, public squares, Indian food, Brazilian ale, Pap's best, extra dry, unfailing dessert.",,,Phoenix, Arizona, U.S.,33.4485866,-112.0773456
200,LOC Conundrum Social,,,'1903-03-05,,"Residence of Miss Jessie Lininger, 522 Washington avenue","Omaha, Nebraska",Omaha daily bee,,Epworth league,,,,,,,,Omaha, Nebraska, U.S.,41.2587459,-95.9383758
201,LOC Conundrum Social,,,'1906-03-05,,Residence of Martin Sawye,"Craftsbury, Vermont",Orleans County monitor,,Junior Home Circle,,,,,,,,Craftsbury, Vermont, U.S.,44.6353452,-72.3724784
202,LOC Conundrum Social,,,'1901-03-06,,,"Waitsfield, Vermont",Barre evening telegram,,,,,,,,,,Waitsfield, Vermont, U.S.,44.192132,-72.8227076
203,LOC Conundrum Social,,,'1893-01-19,,Residence of Fred Horsford,"Charlotte, Vermont",Burlington weekly free press,,,,,,,,,,Charlotte, Vermont, U.S.,44.3096989,-73.2545441
204,LOC Conundrum Social,,,'1893-01-18,,Residence of H.B. Sheldon,"Lansing, Minnesota",Mower County transcript,,Young Ladies of Mrs. A.M. Wheeler’s Sunday school,,,,,,,,Lansing, Minnesota, U.S.,43.7452402,-92.9701918
205,LOC Conundrum Social,,,'1912-03-07,,First Presbyterian church,"Aberdeen, Washington",Aberdeen herald,,Epworth league,,,,,,,,Aberdeen, Washington, U.S.,46.975371,-123.815722
206,LOC Conundrum Social,,,'1916-03-08,,,"Albany, Vermont",Orleans County monitor,,Owensville M.E. church,,,,,,,,Albany, Vermont, U.S.,44.7293376,-72.38129782
207,LOC Conundrum Social,,,'1896-03-10,,Parsonage,"Annapolis, Maryland",Evening capital,Conundrum Supper guests were divided into groups in the form of some sort of competition,,,,,,,,,Annapolis, Maryland, U.S.,38.9786401,-76.492786
208,LOC Conundrum Social,,,'1894-06-22,,Residence of Gen. O’Brien,"Olympia, Washington",Washington standard,,,,,,,,,,Olympia, Washington, U.S.,47.0451022,-122.8950075
209,LOC Conundrum Social,,,'1900-02-28,,Library,"Danville, Vermont",St. Johnsbury Caledonian,Same event is referenced in the issue from March 14,,,,,,,,,Danville, Vermont, U.S.,44.411221,-72.139664
210,LOC Conundrum Social,,,'1900-02-28,,Library,"St. Johnsbury, Vermont",St. Johnsbury Caledonian,,,,,,,,,,St. Johnsbury, Vermont, U.S.,44.4192249,-72.0150951
211,LOC Conundrum Social,,,'1908-02-27,,Methodist church parlors,"Vergennes, Vermont",Burlington weekly free press,,Young People’s society of Christian Endeavor,,,,,,,,Vergennes, Vermont, U.S.,44.168415,-73.252029
212,LOC Conundrum Social,,,'1894-05-03,,Residence of Mr. L. Groh,"Herndon, Washington D.C.",Evening star,Same event is referenced in the issue from May 9,Epworth League,,,,,,,,Herndon, Washington D.C., U.S.,,
213,LOC Conundrum Social,,,'1905-01-25,,Methodist church,"St. Johnsbury, Vermont",St. Johnsbury Caledonian,,Ladies’ Aid society of Leigh-Street Baptist church,,,,,,,,St. Johnsbury, Vermont, U.S.,44.4192249,-72.0150951
214,LOC Conundrum Social,,,'1902-05-04,,"Residence of Mr. Charles J. Billups, 424N. Twenty-fifth street","Richmond, Virginia",The times,,,,,,,,,,Richmond, Virginia, U.S.,37.5385087,-77.43428
215,LOC Conundrum Social,,,'1912-05-04,,At Miss Osa Redshaw’s school,"Ottumwa, Iowa",Ottumwa tri-weekly courier,"Interestingly written by a 14 year old, suggesting that kids also had CSs",Ladies of the Congregational church,,,,,,,,Ottumwa, Iowa, U.S.,41.0200145,-92.4112963
216,LOC Conundrum Social,,,'1897-05-05,,Church parlors,"New Ulm, Minnesota",New Ulm review,,Ladies’ Aid society of the M.E. church,,,,,,,,New Ulm, Minnesota, U.S.,44.3140261,-94.4614177
217,LOC Conundrum Social,,,'1899-02-19,,Town hall,"Haughville, Indiana",The Indianapolis journal,,Ladies’ Aid of the M.E. church,,,,,,,,Haughville, Indiana, U.S.,39.7744444,-86.1972222
218,LOC Conundrum Social,,,'1897-02-19,,Residence of W.J. Kneeshaw,"Pembina, North Dakota",The pioneer express,Same event is referenced in the issue from February 12,Epworth league,,,,,,,,Pembina, North Dakota, U.S.,48.7530787,-97.5532833
219,LOC Conundrum Social,,,'1910-02-18,,Grange hall,"Friday Harbor, Washington",The San Juan islander,Contains eBOF,Mrs. W.A. Sperry,,,,,,,,Friday Harbor, Washington, U.S.,48.5342662,-123.0171242
220,LOC Conundrum Social,,,'1887-01-29,,,"Saint Paul, Minnesota",St. Paul daily globe,,Young People’s society of Christian Endeavor,,,,,,,,Saint Paul, Minnesota, U.S.,44.9504037,-93.1015026
221,LOC Conundrum Social,,,'1895-05-10,,"United Presbyterian Church, corner of Santa Clara avenue and Union street","Alameda, California",The San Francisco call,,,,,,,,,,Alameda, California, U.S.,37.6090291,-121.899142
222,LOC Conundrum Social,,,'1892-02-18,,Congregational church,"Westford, Vermont",Burlington weekly free press,,,,,,,,,,Westford, Vermont, U.S.,44.6119942,-73.0087453
223,LOC Conundrum Social,,,'1918-05-10,,Presbyterian church,"Canfield, Ohio",The Mahoning dispatch,,,,,,,,,,Canfield, Ohio, U.S.,41.025059,-80.760912
224,LOC Conundrum Social,,,'1910-02-17,,K.O.T.M. hall,"Sumner, Michigan",Alma record,Contains eBOF; Same event is referenced in the issue from February 10,,,,,,"Joan of Arc, Summer boys, Gritty maidens, an ugly beast, soldier's home?, dominity of Cook, relic of war, the best of all, the fruit of wine, a dutch dream, 4th of July, a delightful couple, Summer girls, old maid consolation, a member of the smart set, something that belonged to Noah, what you may have been in, what Site was in old Kentucky, nothing with something around it, imports from North Poles, what we all are at times, a household necessity, what we all hope to do again, One young man thought he had a conundrum when the waiter brought him a tooth pick, a candy kiss, and a glass of water.",,,Sumner, Michigan, U.S.,43.3069767,-84.8158427
225,LOC Conundrum Social,,,'1904-02-17,,First Presbyterian church,"Fargo, North Dakota",The Fargo forum and daily republican,,,,,,,,,,Fargo, North Dakota, U.S.,46.877229,-96.789821
226,LOC Conundrum Social,,,'1894-05-11,,,"Boston, Massachusetts",Vermont phoenix,“Miss Adelia Scott took the prize of a conundrum social in Boston recently”,Epworth league of the M.E. church,,,,,,,,Boston, Massachusetts, U.S.,42.3602534,-71.0582912
227,LOC Conundrum Social,,,'1910-05-12,,"Residence of Mrs. V.E. Roflnot, on Superior avenue","Hegewisch, Indiana",The Lake County times,,Ladies’ Aid society of the Knox Presbyterian church,,,,,,,,Hegewisch, Indiana, U.S.,41.5553245,-87.4491529
228,LOC Conundrum Social,,,'1909-06-21,,Church parlors,"Berkeley, California",The San Francisco call,,Christian Endeavor society of the First Congregational church,,,,,,,,Berkeley, California, U.S.,37.8708393,-122.2728639
229,LOC Conundrum Social,,,'1907-05-13,,Church parlors,"Salem, Oregon",Daily capital journal,,Young People’s society,,,,,,,,Salem, Oregon, U.S.,44.9391565,-123.033121
230,LOC Conundrum Social,,,'1911-05-13,,Swedish Lutheran church,"Calumet, Michigan",The Calumet news,,,,,,,,,,Calumet, Michigan, U.S.,47.246592,-88.454006
231,LOC Conundrum Social,,,'1916-02-19,,St. Francis’ Roman Catholic church,"Harrisburg, Pennsylvania",Harrisburg telegraph,,Mrs. James Stevenson’s Sunday school class,,,,,,,,Harrisburg, Pennsylvania, U.S.,40.2663107,-76.8861122
232,LOC Conundrum Social,,,'1911-02-15,,League room,"Honesdale, Pennsylvania",The citizen,Contains eBOF; same event is referenced in the issue from February 15,,,,,,,,,Honesdale, Pennsylvania, U.S.,41.5767552,-75.2587871
233,LOC Conundrum Social,,,'1891-02-20,,First Christian church,"Omaha, Nebraska",Omaha daily bee,Contains a few eBOF dishes,Young People of the Congregational church,,,,,"Some of the more clever ones were: ""Boston's overthrow"" -tea; ""A group of islands"" -sandwiches; ""A woman's weapon"" - tongue; ""Preserved in the ark"" -ham.",,,Omaha, Nebraska, U.S.,41.2587459,-95.9383758
234,LOC Conundrum Social,,,'1891-05-02,,Church parlors,"Pasadena, California",Los Angeles herald,,Ladies of Reid Memorial United Presbyterian church,,,,,,,,Pasadena, California, U.S.,34.1476452,-118.1444779
235,LOC Conundrum Social,,,'1907-03-21,,Residence of Mrs. John Evans on East Main street,"Richmond, Indiana",The Richmond palladium and sun-telegram,,Christian Endeavor society,,,,,,,,Richmond, Indiana, U.S.,39.8286897,-84.8898521
236,LOC Conundrum Social,,,'1898-03-22,,,"Colfax County, New Mexico",Santa Fe new Mexican,,Christian Endeavor society,,,,,,,,Colfax County, New Mexico, U.S.,36.5571762,-104.6118941
237,LOC Conundrum Social,,,'1898-03-23,,Presbyterian church parlors,"Dunmore, Pennsylvania",The Scranton tribune,Same event is referenced in the issue from March 24,Ladies of St. John’s Parish,,,,,,,,Dunmore, Pennsylvania, U.S.,41.4198027,-75.6324112
238,LOC Conundrum Social,,,'1897-02-26,,Residence of Judge Anders,"Olympia, Washington",Washington standard,,"Royal Oak camp, R.N.A",,,,,,,,Olympia, Washington, U.S.,47.0451022,-122.8950075
239,LOC Conundrum Social,,,'1902-03-23,,Odd Fellows’ hall,"St. Paul, Minnesota",The Saint Paul globe,,Ladies of the M.E. church,,,,,,,,St. Paul, Minnesota, U.S.,44.9504037,-93.1015026
240,LOC Conundrum Social,,,'1894-02-25,,Residence of George Seamer,"Saint Paul, Minnesota",St. Paul daily globe,,W.C.T.U.,,,,,,,,Saint Paul, Minnesota, U.S.,44.9504037,-93.1015026
241,LOC Conundrum Social,,,'1909-03-25,,Opera house,"Red Cloud, Nebraska",The Red Cloud chief,Same event is referenced in the issue from March 25,Young Ladies of the Presbyterian church,,,,,,,,Red Cloud, Nebraska, U.S.,40.088903,-98.519505
242,LOC Conundrum Social,,,'1893-03-26,,,"Everett, Washington",The Seattle post-intelligencer,"Same event is referenced in the issue from March 19, 1893; process of how the couples find each other described",Womens Relief corps,,,,,,,,Everett, Washington, U.S.,47.9673056,-122.2013998
243,LOC Conundrum Social,,,'1896-03-26,,G.A.R. hall,"North Yakima, Washington",The Yakima herald,,Y.P.S.C.E. of the Disciples AND Ladies’ Aid,,,,,,,,North Yakima, Washington, U.S.,46.601557,-120.5108421
244,LOC Conundrum Social,,,'1896-03-27,,McKenna block,"Yale, Michigan",The Yale expositor,,C.E. society of the Reformed church,,,,,,,,Yale, Michigan, U.S.,43.130026,-82.798263
245,LOC Conundrum Social,,,'1900-02-23,,Parsonage on Hopoean avenue,"Akron, Ohio",Akron daily Democrat,,Ladies’ Aid society of the Presbyterian church,,,,,,,,Akron, Ohio, U.S.,41.083064,-81.518485
246,LOC Conundrum Social,,,'1895-03-28,,,"Round Lake, Minnesota",The Worthington advance,,Senior Christian Endeavor society,,,,,,,,Round Lake, Minnesota, U.S.,43.5405195,-95.4683381
247,LOC Conundrum Social,,,'1894-02-22,,Presbyterian church parlors,"Scranton, Pennsylvania",The Scranton tribune,,Ladies’ Aid society,,,,,,,,Scranton, Pennsylvania, U.S.,41.4086874,-75.6621294
248,LOC Conundrum Social,,,'1914-03-28,,Church parlors,"Lebanon, Connecticut",Norwich bulletin,,Ladies’ Aid society of Willing Workers of St. Charles Church,,,,,,,,Lebanon, Connecticut, U.S.,41.6362097,-72.2125789
249,LOC Conundrum Social,,,'1895-03-30,,,"Minneapolis, Minnesota",The Irish standard,,Y.M.C.A.,,,,,,,,Minneapolis, Minnesota, U.S.,44.9706705,-93.26821774
250,LOC Conundrum Social,,,'1899-03-30,,Y.M.C.A. rooms,"Cañon City, Colorado",Cañon City record,Contains eBOF (interesting menu),Aid society of Nassawango M.P. church,,,,,"Dissolved Diamonds, Support of Age, Pearl of the Orient, Crystallized Odors, Ambrosia, Nymph's Luncheon, Small Boy's Stand-by, Snow Flakes, Infant's Delight, Sylvan Sweetness, Dyspepeia's Forerunner, Hard Tack, Cupid's Rations, Concentrated Nectar, Crutch of Existence, Trimmed Molasses, Unfailing Dessert, Coffee, Doughnuts.",,,Cañon City, Colorado, U.S.,38.4423644,-105.2224947
251,LOC Conundrum Social,,,'1912-03-30,,Residence of Mrs. B.F. Johnson,"Snow Hill, Maryland",Democratic messenger,,Ladies of the Hebron Baptist church,,,,,,,,Snow Hill, Maryland, U.S.,38.1770634,-75.3926959
252,LOC Conundrum Social,,,'1892-02-21,,Church parlors,"Saint Paul, Minnesota",St. Paul daily globe,,"Young People’s society Christian Endeavor, of West Presbyterian church",,,,,,,,Saint Paul, Minnesota, U.S.,44.9504037,-93.1015026
253,LOC Conundrum Social,,,'1903-02-20,,Church lecture room,"Wilmington, Delaware",Evening journal,,,,,,,,,,Wilmington, Delaware, U.S.,39.7459468,-75.546589
254,LOC Conundrum Social,,,'1901-05-02,,Residence of Lucins Wellington,"Christian Hollow, Vermont",Bellows Falls times,Contains eBOF,Junior class,,,,,"The menu for supper is as follows: Gape and guess at it, amber nectar, whan women need most, chip of the old block, extract of cane, sour solidity, bovine lacteal, necessary evils, Boston overthrow, Eve's temptation sandwiched, agitated fluid of kine, colored staff, eastern delicacy, Jack Grab, spring's offering, nightmare incubator, what some folks don't know, the Hub's specialty, whetsone? for the wits, a well produced article, Fourth of July's joy, covered surprise.",,,Christian Hollow, Vermont, U.S.,,
255,LOC Conundrum Social,,,'1901-05-03,,Residence of James Peterson,"Red Cloud, Nebraska",The Red Cloud chief,Contains eBOF; same event is referenced in the issue from April 26,Ladies’ Aid society of the Congregational church,,,,,"April's Offering, Boston's Overthrow, Causes Neighborhood Contention, ""O"" Baked, Food for the Spinning Wheel, Fruit of the Vine, First Age of Mankind, Hidden Tears, Pat's Delight, What Asthmetic People Are, Women of Grit, Nymph's Luncheon.",,,Red Cloud, Nebraska, U.S.,40.088903,-98.519505
256,LOC Conundrum Social,,,'1902-02-06,,,"Staffordville, Connecticut",The Press,,Mrs. W.C. Robbins,,,,,,,,Staffordville, Connecticut, U.S.,41.9939848,-72.25869
257,LOC Conundrum Social,,,'1896-12-23,,,"Cambridgeport, Vermont",Bellows Falls times,Same event is referenced in the issue from December 16,Presbyterian church society,,,,,,,,Cambridgeport, Vermont, U.S.,43.1514662,-72.5603684
258,LOC Conundrum Social,,,'1891-09-17,,"Owl restaurant building, next to H.J. Siems’ store","Pierre, South Dakota",Pierre weekly free press,Same event is referenced in the issue from September 24,,,,,,,,,Pierre, South Dakota, U.S.,44.368305,-100.351185
259,LOC Conundrum Social,,,'1910-09-17,,Alma district,"Mesa, Arizona",Arizona republican,Same event is referenced in the issue from September 18,Epworth league from Washburn,,,,,,,,Mesa, Arizona, U.S.,33.4151117,-111.8314773
260,LOC Conundrum Social,,,'1904-04-16,,M.E. church,"Washburn, North Dakota",The Washburn leader,,Presbyterian ladies,,,,,,,,Washburn, North Dakota, U.S.,47.289671,-101.028968
261,LOC Conundrum Social,,,'1891-09-18,,G.A.R. hall,"Iola, Kansas",The Iola register,Same event is referenced twice in the same issue and in the issues from September 25 and October 2,Ladies’ Aid society of the Duff Street United Brethren church,,,,,,,,Iola, Kansas, U.S.,37.9244799,-95.3999814
262,LOC Conundrum Social,,,'1908-08-28,,Basement of the church,"Clarksburg, West Virginia",The daily telegram,Cointains eBOF,,,,,,"The staff of life 1c, A joke with the first letter changed 1 cent, Another name for a goat 1c, The son of Noah 3c, A cure for love 1c, A Greek letter 5c, A letter with an ""ake"" 5c, What a man doesn't like in his wife 3c, A girl's name with an ""ad"" 2c, Shavings from a summer resort 2c, What I do when I see a mouse 10c, No grounds for complaint 3c, The twentieth letter in the alphabet 2c, Spring's offering 1c, Chips from the old block 1c, What lovers like 4c.",,,Clarksburg, West Virginia, U.S.,39.2806451,-80.3445341
263,LOC Conundrum Social,,,'1898-04-16,,North Christian church,"Topeka, Kansas",The Topeka state journal,,Epworth League,,,,,,,,Topeka, Kansas, U.S.,39.049011,-95.677556
264,LOC Conundrum Social,,,'1894-10-11,,Methodist Vestry,"St. Johnsbury, Vermont",St. Johnsbury Caledonian,,Epworth league,,,,,,,,St. Johnsbury, Vermont, U.S.,44.4192249,-72.0150951
265,LOC Conundrum Social,,,'1894-10-11,,Methodist vestry,"St. Johnsbury, Vermont",St. Johnsbury Caledonian,,Baptist missionary society,,,,,,,,St. Johnsbury, Vermont, U.S.,44.4192249,-72.0150951
266,LOC Conundrum Social,,,'1892-10-11,,Residence of Mrs. Detterick on Interocean street,"East Las Vegas, New Mexico",Las Vegas free press,,,,,,,,,,East Las Vegas, New Mexico, U.S.,,
267,LOC Conundrum Social,,,'1889-10-11,,Residence of Mrs. Wm. Cather,"Red Cloud, Nebraska",The Red Cloud chief,,Sunday school of St. Benjamin’s Lutheran church,,,,,,,,Red Cloud, Nebraska, U.S.,40.088903,-98.519505
268,LOC Conundrum Social,,,'1913-10-10,,"Residence of Mr. Milton Yingling, near the city","Westminster, Maryland",The Democratic advocate,,,,,,,,,,Westminster, Maryland, U.S.,39.5752639,-76.9959277
269,LOC Conundrum Social,,,'1883-12-01,,M.E. parsonage,"Seattle, Washington",Seattle daily post-intelligencer,"Some details, very early eBOF",Liberty and Rich C.W.B.M.,,,,,,,,Seattle, Washington, U.S.,47.6038321,-122.3300624
270,LOC Conundrum Social,,,'1913-04-15,,Church Hill Grange hall,"Hopkinsville, Kentucky",Hopkinsville Kentuckian,,Women’s Circle of the Baptist church,,,,,,,,Hopkinsville, Kentucky, U.S.,36.8657651,-87.4889532
271,LOC Conundrum Social,,,'1899-04-15,,Church,"Albuquerque, New Mexico",Albuquerque daily citizen,Contains eBOF; Same event is referenced in the issues from April 13 and April 14,Christian Endeavor society,,,,,"Crystallized Odors, Ambrosis, Dissolved Diamonds, Hard Tuck, Concentrated Nectar, Cupid's Rations, Crutch of Existence, Unfailing Desert.",,,Albuquerque, New Mexico, U.S.,35.0841034,-106.6509851
272,LOC Conundrum Social,,,'1920-10-07,,Conference room,"East Canaan, Connecticut",Connecticut western news,,Ladies’ Aid society of the Presbyterian church,,,,,,,,East Canaan, Connecticut, U.S.,42.0134264,-73.2837269
273,LOC Conundrum Social,,,'1904-09-19,,Residence of Mrs. Shields,"Aberdeen, Washington",Aberdeen herald,,The King’s Daughters,,,,,,,,Aberdeen, Washington, U.S.,46.975371,-123.815722
274,LOC Conundrum Social,,,'1908-12-03,,Parish house,"Colchester, Vermont",Burlington weekly free press,,Epworth league,,,,,,,,Colchester, Vermont, U.S.,44.54791,-73.155899
275,LOC Conundrum Social,,,'1910-12-03,,"Residence of J.H. Ross, 4426 Magoun avenue","Hammond, Indiana",The Lake County times,,Misses Lillie and Josephine Hodsdon,,,,,,,,Hammond, Indiana, U.S.,41.5833658,-87.500043
276,LOC Conundrum Social,,,'1894-09-20,,Vestry,"Portland, Maine",The Portland daily press,,Ladies Auxiliary of the Baptist church,,,,,,,,Portland, Maine, U.S.,43.6610277,-70.2548596
277,LOC Conundrum Social,,,'1913-10-07,,Church,"Aberdeen, Washington",Aberdeen herald,,Laday Maccabees,,,,,,,,Aberdeen, Washington, U.S.,46.975371,-123.815722
278,LOC Conundrum Social,,,'1912-09-20,,Forester’s hall,"Perth Amboy, New Jersey",Perth Amboy evening news,,The “Y’s”,,,,,,,,Perth Amboy, New Jersey, U.S.,40.5067723,-74.2654234
279,LOC Conundrum Social,,,'1893-09-21,,"“Y’s” parlors in the Robbins building, South Main street","Shenandoah, Pennsylvania",The evening herald,,Epworth League,,,,,,,,Shenandoah, Pennsylvania, U.S.,40.8204404,-76.2011079
280,LOC Conundrum Social,,,'1905-04-12,,Residence of L.A. Harbert,"Columbus, Nebraska",The Columbus journal,,Deborah Aid society of the First Christian church,,,,,,,,Columbus, Nebraska, U.S.,41.4296258,-97.3684294
281,LOC Conundrum Social,,,'1911-10-05,,Church social rooms,"Hammond, Indiana",The Lake County times,Same event is referenced in the issue from October 3,,,,,,,,,Hammond, Indiana, U.S.,41.5833658,-87.500043
282,LOC Conundrum Social,,,'1898-10-04,,Residence of W.F. Morous,"Somerset, Michigan",The Hillsdale standard,,Ladies’ Auxiliary of the Congregational church AND Mrs. H.B. Partridge,,,,,,,,Somerset, Michigan, U.S.,42.0484021,-84.3768749
283,LOC Conundrum Social,,,'1910-09-21,,Opera house hall,"East Barre, Vermont",The Barre daily times,Same event is referenced in the issue from September 22,,,,,,,,,East Barre, Vermont, U.S.,44.1581178,-72.4503802
284,LOC Conundrum Social,,,'1917-09-22,,Residence of Miss Ella Lewis,"Tower City, Pennsylvania",Harrisburg telegraph,,,,,,,,,,Tower City, Pennsylvania, U.S.,40.5892808,-76.552385
285,LOC Conundrum Social,,,'1896-10-02,,In the valley,"Hood River, Oregon",The Hood River glacier,,"Aid society of the M.E. church south, assisted by the choir and Epworth league",,,,,,,,Hood River, Oregon, U.S.,45.7053101,-121.5217927
286,LOC Conundrum Social,,,'1910-12-07,,Wheeler building at Milton,"Point Pleasant, West Virginia",The Point Pleasant register,,Harmar Congregational church,,,,,,,,Point Pleasant, West Virginia, U.S.,38.8445251,-82.1370889
287,LOC Conundrum Social,,,'1899-09-15,,Church,"Marietta, Ohio",Marietta daily leader,,Y.M.C.A?,,,,,,,,Marietta, Ohio, U.S.,39.4167742,-81.4548392
288,LOC Conundrum Social,,,'1903-10-01,,Railroad Y.M.C.A rooms,"Marshalltown, Iowa",Evening times-Republican,,Christian Endeavor society of the First Baptist church,,,,,,,,Marshalltown, Iowa, U.S.,42.0442545,-92.9123388
289,LOC Conundrum Social,,,'1911-04-17,,,"Matawan, New Jersey",Peth Amboy evening news,Same event is referenced in the issue from April 17,Ladies of the Presbyterian church,,,,,,,,Matawan, New Jersey, U.S.,40.41483,-74.2295891
290,LOC Conundrum Social,,,'1900-08-21,,Church,"Bismarck, North Dakota",Bismarck daily tribune,,Ladies of the Baptist Church,,,,,,,,Bismarck, North Dakota, U.S.,46.808327,-100.783739
291,LOC Conundrum Social,,,'1901-04-27,,Laurel house,"Laurel, Washington D.C.",Evening star,,Senior Epworth league,,,,,,,,Laurel, Washington D.C., U.S.,39.0992752,-76.8483061
292,LOC Conundrum Social,,,'1897-10-27,,M.E. church parlors,"Huntington, Ohio",The enterprise,Same event is referenced in the issue from November 03,Epworth league of the M.E. church,,,,,,,,Huntington, Ohio, U.S.,41.1031097,-82.2209916
293,LOC Conundrum Social,,,'1896-04-29,,"Parsonage, on Marina street","Prescott, Arizona",Arizona weekly journal-miner,,Willing Workers of the United Brethren church,,,,,,,,Prescott, Arizona, U.S.,34.5399962,-112.4687616
294,LOC Conundrum Social,,,'1908-10-28,,,"Richmond, Indiana",The Richmond palladium and sun-telegram,,,,,,,,,,Richmond, Indiana, U.S.,39.8286897,-84.8898521
295,LOC Conundrum Social,,,'1902-04-26,,Central Christian church,"St. Paul, Minnesota",The Saint Paul globe,,,,,,,,,,St. Paul, Minnesota, U.S.,44.9504037,-93.1015026
296,LOC Conundrum Social,,,'1900-10-29,,M.E. church,"West Charleston, Vermont",Orleans County monitor,,,,,,,,,,West Charleston, Vermont, U.S.,44.8989366,-72.0595428
297,LOC Conundrum Social,,,'1908-10-23,,School building,"Colfax, Washington",The Colfax gazette,,Y.P.S.C.E. of the First Baptist church,,,,,,,,Colfax, Washington, U.S.,46.8801655,-117.3643495
298,LOC Conundrum Social,,,'1889-10-30,,"Residence of E.N. Brown, 1512 Harmon place","Saint Paul, Minnesota",St. Paul daily globe,Same event is referenced in the issue from November 3,Christian Endeavor society,,,,,,,,Saint Paul, Minnesota, U.S.,44.9504037,-93.1015026
299,LOC Conundrum Social,,,'1895-08-01,,,"Phillipsburg, Kansas",Phillipsburg herald,,Young People of the Second Methodist Protestant church,,,,,,,,Phillipsburg, Kansas, U.S.,39.756121,-99.323985
300,LOC Conundrum Social,,,'1892-10-23,,Second Methodist Protestant church,"Seattle, Washington",The Seattle post-intelligencer,Same event is referenced in the issue from October 24,,,,,,,,,Seattle, Washington, U.S.,47.6038321,-122.3300624
301,LOC Conundrum Social,,,'1894-12-24,,Methodist church,"Omaha, Nebraska",Omaha daily bee,,Woman’s Relief corps,,,,,,,,Omaha, Nebraska, U.S.,41.2587459,-95.9383758
302,LOC Conundrum Social,,,'1894-08-03,,Town hall,"Townshend, Vermont",Vermont phoenix,,,,,,,,,,Townshend, Vermont, U.S.,43.0473014,-72.6675931
303,LOC Conundrum Social,,,'1891-04-23,,Baptist church,"Pierre, South Dakota",Pierre weekly free press,,Ladies of the Presbyterian church,,,,,,,,Pierre, South Dakota, U.S.,44.368305,-100.351185
304,LOC Conundrum Social,,,'1903-04-22,,Residence of Mrs. Lizzie Fowler,"Stevensville, Montana",The Western news,,Junior Epworth league,,,,,,,,Stevensville, Montana, U.S.,46.510407,-114.094385
305,LOC Conundrum Social,,,'1897-08-06,,Town hall,"South Londonderry, Vermont",The Londonderry sifter,,Ladies of the Rebekah Relief association,,,,,,,,South Londonderry, Vermont, U.S.,43.1928538,-72.8142644
306,LOC Conundrum Social,,,'1894-10-21,,Independent Order of Odd Fellows hall,"Omaha, Nebraska",Omaha daily bee,Same event is referenced in the issue from October 31,,,,,,,,,Omaha, Nebraska, U.S.,41.2587459,-95.9383758
307,LOC Conundrum Social,,,'1905-08-09,,Residence of C.G. Mooney,"St. Johnsbury, Vermont",St. Johnsbury Caledonian,,Ladies’ Aid society of the M.E. church,,,,,,,,St. Johnsbury, Vermont, U.S.,44.4192249,-72.0150951
308,LOC Conundrum Social,,,'1892-09-08,,Opera house,"Grayling, Michigan",Crawford avalanche,Contains eBOF; same event is referenced in the issue from September 15,Young people of the Epworth league,,,,,"Menu: Rise of the Miller, Boston Relish, The lay of the last Minstrel, Calve's Relatives, Rolling Stock, Improvisioned Cacklers, Age of Vehicles, Tabby's party, ? Of the wood pile, Strikers, Earth's Creepers, Occupants of the Ark, Forbidden Fruit, Risen Sweets, Fruit of the Vine, Skippers' Home, Spring's Offering, Nerve Strenghtener, Arabian Cordial, Boston's Overthrow, Ivory Manipulators.",,,Grayling, Michigan, U.S.,44.661517,-84.714637
309,LOC Conundrum Social,,,'1892-08-11,,Epworth hall,"Grand Rapids, Wisconsin",Wood County reporter,,Ladies of the First Baptist church,,,,,,,,Grand Rapids, Wisconsin, U.S.,42.922927,-85.688559
310,LOC Conundrum Social,,,'1893-10-20,,,"Sacramento, California",The record-union,,Rebekahs of Linden,,,,,,,,Sacramento, California, U.S.,38.5815719,-121.4943996
311,LOC Conundrum Social,,,'1898-09-08,,,"Mineral Point, Wisconsin",Mineral Point tribune,,,,,,,,,,Mineral Point, Wisconsin, U.S.,42.8615791,-90.1842252
312,LOC Conundrum Social,,,'1893-10-20,,"Residence of Mr. W.W. Gardner’s, of Emsley","Emsley, South Dakota",The Mitchell capital,,Congregational Y.P.S.C.E.,,,,,,,,Emsley, South Dakota, U.S.,43.52460545,-98.14449555
313,LOC Conundrum Social,,,'1891-09-11,,Church parlors,"Brattleboro, Vermont",Vermont phoenix,,,,,,,,,,Brattleboro, Vermont, U.S.,42.8509152,-72.5578678
314,LOC Conundrum Social,,,'1916-10-19,,Adamston United Brethren church,"Clarksburg, West Virginia",The daily telegram,Same event is referenced twice in the same issue,,,,,,,,,Clarksburg, West Virginia, U.S.,39.2806451,-80.3445341
315,LOC Conundrum Social,,,'1894-08-16,,,"Bellows Falls, Vermont",Bellows Falls times,,,,,,,,,,Bellows Falls, Vermont, U.S.,43.134063,-72.444534
316,LOC Conundrum Social,,,'1899-08-17,,Residence of Dana Rattles,"West Randolph, Vermont",Herald and news,,,,,,,,,,West Randolph, Vermont, U.S.,43.925099,-72.666321
317,LOC Conundrum Social,,,'1902-04-18,,Congregational church,"Watertown, Connecticut",Waterbury Democrat,,Teachers and pupils of Oak Shade school,,,,,,,,Watertown, Connecticut, U.S.,41.6062078,-73.1181658
318,LOC Conundrum Social,,,'1914-10-16,,Oak Shade schoolhouse,"Oak Shade, Ohio",Fulton County tribune,,Ladies of the Congregational church,,,,,,,,Oak Shade, Ohio, U.S.,39.2259083,-82.0384751
319,LOC Conundrum Social,,,'1890-10-16,,Parlors of the church,"Tolland, Connecticut",The Press,,,,,,,,,,Tolland, Connecticut, U.S.,41.818446,-72.3562252
320,LOC Conundrum Social,,,'1912-09-14,,,"Norwich, Connecticut",Norwich bulletin,,Church of the Endeavor(?),,,,,,,,Norwich, Connecticut, U.S.,41.5242649,-72.0759105
321,LOC Conundrum Social,,,'1910-12-08,,Residence of Mr. and Mrs. _ F. Gilbert,"Cairo, Illinois",The Cairo bulletin,,Y.P.S.C.E.,,,,,,,,Cairo, Illinois, U.S.,37.0057958,-89.1772449
322,LOC Conundrum Social,,,'1906-10-10,,G.V.A. hall,"Gilman, Iowa",Evening times-Republican,Contains eBOF,Railway Y.M.C.A.,,,,,"Unruly members, causes neighborhood contention, new England brains, food for the spinning wheel, what a boy calls his sweetheart, women of grit, what caused the fall of mankind, hidden tears, true cake, changeable politicans, what asthmatic people are, April's offering, Boston's overthrow.",,,Gilman, Iowa, U.S.,41.8794766,-92.7885874
323,LOC Conundrum Social,,,'1903-12-17,,"Railway Y.M.C.A. hall, main street station","Fulton, Virginia",The times dispatch,,Sunday School,,,,,,,,Fulton, Virginia, U.S.,40.0772948,-80.7117476
324,LOC Conundrum Social,,,'1899-04-06,,,"Cañon City, Colorado",Cañon City record,,Epworth league of the First M.E. Church,,,,,,,,Cañon City, Colorado, U.S.,38.4423644,-105.2224947
325,LOC Conundrum Social,,,'1895-11-19,,Church parlors,"Annapolis, Maryland",Evening capital,Contains a few eBOF dishes/riddles and a description of the event; same event is referenced in the issue from November 16,,,,,,,,,Annapolis, Maryland, U.S.,38.9786401,-76.492786
326,LOC Conundrum Social,,,'1898-11-22,,Seabrook,"Topeka, Kansas",The Topeka state journal,,,,,,,,,,Topeka, Kansas, U.S.,39.049011,-95.677556
327,LOC Conundrum Social,,,'1891-11-22,,Residence of Rev. Pearson,"Phoenix, Arizona",Arizona republican,,R.F.O.M. Club,,,,,,,,Phoenix, Arizona, U.S.,33.4485866,-112.0773456
328,LOC Conundrum Social,,,'1903-11-21,,"Residence of Miss Heloise Green, 921 Harrison street","North Topeka, Kansas",The Topeka state journal,Same event is referenced in the issue from November 19,Ladies of the Greenbush Methodist church,,,,,,,,North Topeka, Kansas, U.S.,37.718956,-97.334353
329,LOC Conundrum Social,,,'1901-11-21,,Greenbush church,"Princeton, Minnesota",The Princeton union,,,,,,,,,,Princeton, Minnesota, U.S.,45.5726619,-93.5853656
330,LOC Conundrum Social,,,'1896-12-16,,Residence of Mrs. T. Varco,"Lansing, Minnesota",Mower County transcript,"Same event is referenced in the issue Mower County transcript, December 09, 1896",Young People of the Baptist church,,,,,,,,Lansing, Minnesota, U.S.,43.7452402,-92.9701918
331,LOC Conundrum Social,,,'1893-12-17,,Calvary Baptist church,"Omaha, Nebraska",Omaha daily bee,Contains eBOF,Epworth league,,,,,"Solids: Women of Grit, ? Staff, Preserved in the Ark, Unruly member, All Things to All Men, What Some People Don't Know. Appetizers: Tearful Greeting, Elevated Feline, What Shall We Do with Langiry? What Mankind Has Been Doing Since Eve Ate the Apple, Fruit of the Vine. Desert: Back Bone of History, Musical Cake, Maid of Orleans, Tree Cake, Something Unearthly, One Kind of Nuts. Drinks: Java la Grippe? Boston's Overthrow, Wise Beverage, Spring's Offering, Chip of the Old Block.",,,Omaha, Nebraska, U.S.,41.2587459,-95.9383758
332,LOC Conundrum Social,,,'1905-09-29,,"Residence of Mrs. D.J. Peppers, Bentley street","Perth Amboy, New Jersey",Perth Amboy evening news,,,,,,,,,,Perth Amboy, New Jersey, U.S.,40.5067723,-74.2654234
333,LOC Conundrum Social,,,'1900-11-21,,Unity church vestry,"Stowe, Vermont",Barre evening telegram,,,,,,,,,,Stowe, Vermont, U.S.,44.4653741,-72.6860186
334,LOC Conundrum Social,,,'1896-04-03,,Baptist church parlors,"Townshend, Vermont",Vermont phoenix,,Ladies’ Aid society of the M.E. church,,,,,,,,Townshend, Vermont, U.S.,43.0473014,-72.6675931
335,LOC Conundrum Social,,,'1896-04-03,,Church rooms,"Williston, North Dakota",Williston graphic,Contains eBOF; same event is referenced in the issue from March 20,Young People’s society of Christian Endeavor,,,,,"What our Grandmothers used to Card 5c, A Playful Nanny Goat 5c, Condensed Curd 5c, Prairie Produce 5c, Africa's Father 5c, Vegetable Compound 5c, Printers' Aversion 5c, Most Precious Mineral Mixture 5c, Graveyard Mixture 5c, Sea-Shore Mixture 5c, Bachelors' Comfort 5c, Old Maids' Comfort 5c, Sidewalk Slippers 5c, What Babies and Brides Receive 5c",,,Williston, North Dakota, U.S.,48.1465457,-103.621814
336,LOC Conundrum Social,,,'1895-04-03,,United Presbyterian church,"Wichita, Kansas",The Wichita daily eagle,,Ladies of the Christian church,,,,,,,,Wichita, Kansas, U.S.,37.6922361,-97.3375448
337,LOC Conundrum Social,,,'1899-12-17,,,"Phoenix, Arizona",Arizona republican,,Y.P.S.C.E.,,,,,,,,Phoenix, Arizona, U.S.,33.4485866,-112.0773456
338,LOC Conundrum Social,,,'1889-11-30,,First Presbyterian church,"Wichita, Kansas",Wichita eagle,,Ladies’ Auxillary,,,,,,,,Wichita, Kansas, U.S.,37.6922361,-97.3375448
339,LOC Conundrum Social,,,'1903-12-17,,Railroad Y.M.C.A. rooms,"Marshalltown, Iowa",Evening times-Republican,Planned but canceled Conundrum social,,,,,,,,,Marshalltown, Iowa, U.S.,42.0442545,-92.9123388
340,LOC Conundrum Social,,,'1919-12-17,,Universalist church vestry,"St. Johnsbury, Vermont",Weekly Caledonian,,Mr. and Mrs. Powers,,,,,,,,St. Johnsbury, Vermont, U.S.,44.4192249,-72.0150951
341,LOC Conundrum Social,,,'1891-12-18,,Residence of Mr. and Mrs. Powers,"Mt. Vernon, South Dakota",The Mitchell capital,,,,,,,,,,Mt. Vernon, South Dakota, U.S.,43.710542,-98.260359
342,LOC Conundrum Social,,,'1900-12-20,,Residence of Mr. Lstten(?),"Abilene, Kansas",Abilene weekly reflector,,Ladies of the M.E. church,,,,,,,,Abilene, Kansas, U.S.,38.917252,-97.21377
343,LOC Conundrum Social,,,'1897-11-20,,Residence of Mrs. T.B. McElhiney,"Baxter Springs, Kansas",Baxter Springs news,,Young Men’s Christian Association,,,,,,,,Baxter Springs, Kansas, U.S.,37.0236759,-94.7355042
344,LOC Conundrum Social,,,'1897-11-20,,Rooms of the Young Men’s Christian Association,"Sacramento, California",The record-union,Interesting description of the supper itself,Ladies Missionary society of the German M.E. church,,,,,,,,Sacramento, California, U.S.,38.5815719,-121.4943996
345,LOC Conundrum Social,,,'1898-09-29,,Church parlors,"Marietta, Ohio",Marietta daily leader,,Ladies of the Baptist church,,,,,,,,Marietta, Ohio, U.S.,39.4167742,-81.4548392
346,LOC Conundrum Social,,,'1895-04-05,,Church parlors,"Paw Paw, Michigan",The true northerner,Contains eBOF,Pupils of the High School,,,,,"Crutch of creation, Son of Noah, ? Eyed fellows in confusion, ?, Pride of Boston, Cochin China capsules, ? Enemy, Picked from the vine, pressed left to mould, Celestial's confection, Beaten and fried by fire, Enemy to morpheus, Refused by the colonials, Natures greatest need, Everybody's friend.",,,Paw Paw, Michigan, U.S.,42.2178171,-85.8911246
347,LOC Conundrum Social,,,'1911-12-22,,,"Bottineau, North Dakota",The Bottineau courant,,Miss Ida Diehl,,,,,,,,Bottineau, North Dakota, U.S.,48.82723,-100.445698
348,LOC Conundrum Social,,,'1905-09-28,,,"Hillsboro, Ohio",The News-Herald,,Choral society of First German church,,,,,,,,Hillsboro, Ohio, U.S.,39.2022866,-83.611587
349,LOC Conundrum Social,,,'1896-11-29,,Church,"St. Paul, Minnesota",The Saint Paul globe,,Y.P.S.C.E.,,,,,,,,St. Paul, Minnesota, U.S.,44.9504037,-93.1015026
350,LOC Conundrum Social,,,'1896-11-18,,Church parlors,"St. Paul, Minnesota",The Saint Paul globe,Same event is referenced in the issue from November 15,Home Rebekah lodge,,,,,,,,St. Paul, Minnesota, U.S.,44.9504037,-93.1015026
351,LOC Conundrum Social,,,'1908-11-26,,,"West Randolph, Vermont",Herald and news,,Ladies of the W.C.T.U.,,,,,,,,West Randolph, Vermont, U.S.,43.925099,-72.666321
352,LOC Conundrum Social,,,'1892-04-08,,,"Milbank, South Dakota",The herald-advance,,Congregational Ladies’ Aid Society,,,,,,,,Milbank, South Dakota, U.S.,45.219131,-96.635617
353,LOC Conundrum Supper,,,'1894-10-30,,Moore’s Hall,"Bennington, Vermont",Bennington Semi-Weekly Banner,,Village Improvement Association of Floralhome,,,,,,,,Bennington, Vermont, U.S.,43.0125713,-73.1473048
354,LOC Conundrum Supper,,,'1914-09-04,,,"Florahome, Florida",The Palatka news and advertiser,,,,,,,,,,Florahome, Florida, U.S.,29.7327446,-81.8834269
355,LOC Conundrum Supper,,,'1909-06-10,,Methodist Church Parlors,"Newport, Washington",The Newport Miner,Menu included.,Young people,,,,,Menu: The Way the Small Boy Goes Down Hill. Fruit of the Hub. Cereal Compound. Loves' Token. Old Maids' Delight. Curious Composition. Brazilian Ale. Sliced Maple. Spring's Offering. Quivering Dainties. Bovine Relish. Colored Garnish. Hidden Tsars. Earth's Apples.,,,Newport, Washington, U.S.,48.1796277,-117.0432583
356,LOC Conundrum Supper,,,'1909-03-13,,,"Clarksburg, West Virginia",The Clarksburg Daily Telegram,,,,,,,,,,Clarksburg, West Virginia, U.S.,39.2806451,-80.3445341
357,LOC Conundrum Supper,,,'1897-10-28,,,"Dodge City, Kansas",The Globe-republican,"Same event is referenced in the Hutchinson gazette, October 28, 1897 AND The Chanute times, October 29, 1897",Ladies’ Aid,,,,,,,,Dodge City, Kansas, U.S.,37.7527982,-100.0170787
358,LOC Conundrum Supper,,,'1916-03-17,,Southern Marcantile building,"Welsh, Louisiana",The Rice belt journal,Contains eBOF; duplicate reference in the same issue and the same event is referenced in the issue from March 24,Epworth league,,,,,"A marine animal, Mixed up type, Tear drops, Go betweens, Berry juice, Maid of Orleans, A goat, A tight squeeze, Sad predicaments, Too good for you, A silenced squealer, Turns over and over.",,,Welsh, Louisiana, U.S.,30.2360403,-92.8226453
359,LOC Conundrum Supper,,,'1909-03-12,,,"Dakota City, Nebraska",Dakota County herald,Same event is referenced in the issue from March 19; event was postponed to a later date,Ladies’ Social Circle,,,,,,,,Dakota City, Nebraska, U.S.,42.4153516,-96.41853
360,LOC Conundrum Supper,,,'1906-03-12,,Home of Mr and Mrs W. Lamsden,"Barton, Vermont",Orleans County Monitor,,The Ladies’ Aid Society of the Methodist Church,,,,,,,,Barton, Vermont, U.S.,44.74844,-72.17431756
361,LOC Conundrum Supper,,,'1921-03-18,,Home of Mr. And Mrs. HE Wilson,"Klamath Falls, Oregon",The Evening Herald,,,,,,,,,,Klamath Falls, Oregon, U.S.,42.224867,-121.7816704
362,LOC Conundrum Supper,,,'1908-03-11,,Church parlors,"Morrisville, Vermont",News and Citizen,,Lyceum League,,,,,,,,Morrisville, Vermont, U.S.,44.5591997,-72.59236866
363,LOC Conundrum Supper,,,'1901-03-11,,Chapel,"Fair Haven, Connecticut",The daily morning journal and courier,Contains eBOF; Same event is referenced in the issues from March 13 and March 14,Ladies’ Aid society of the M.E. church,,,,,"1. Pearls cast among swine 2. The unruly member 3. Fruit of the vine, assorted sizes 4. A son of Noah 5. Berries roasted and boiled -sweetened to taste 6. Oil well before using 7. Boston's overthrow -old maid's friend 8. The wise beverage - good for all. 9. Many ingredients concreted-assorted 10. The mouse's friend 11. Ivory manipulators 12. A Texas steer -chopped and spiced 13. Shell fruit in layers -baked 14. Billy goat and Uneeda? 15. Pickled fruit -pastor's favorite.",,,Fair Haven, Connecticut, U.S.,41.3112082,-72.8956569
364,LOC Conundrum Supper,,,'1896-03-20,,Church rooms,"Williston, North Dakota",Williston graphic,,Women of the Methodist church,,,,,,,,Williston, North Dakota, U.S.,48.1465457,-103.621814
365,LOC Conundrum Supper,,,'1915-10-26,,Vestry,"Brattleboro, Vermont",The Brattleboro Daily Reformer,Also mentioned Oct 30.,"Robert E. Lee Council, No. 29, Daughters of Liberty,  and Iroquois Tribe, No. 24, Improved Order of Red Men",,,,,,,,Brattleboro, Vermont, U.S.,42.8509152,-72.5578678
366,LOC Conundrum Supper,,,'1907-10-26,,Jr. O. U. A M.  Hall at Harborton,"Accomac, Virginia",Peninsula Enterprise,,"Life Boat lodge No. 150, Independent Order of Good Templars",,,,,,,,Accomac, Virginia, U.S.,37.7195742,-75.6654845
367,LOC Conundrum Supper,,,'1895-03-11,,Hall in the Continental block,"Omaha, Nebraska",Omaha daily bee,,,,,,,,,,Omaha, Nebraska, U.S.,41.2587459,-95.9383758
368,LOC Conundrum Supper,,,'1914-06-10,,Congregational vestry,"Staffordville, Connecticut",The Press,Same event is referenced in the issue from June 03,Daughters of Veterans,,,,,,,,Staffordville, Connecticut, U.S.,41.9939848,-72.25869
369,LOC Conundrum Supper,,,'1916-03-10,,G.A.R. hall,"Detroit, Michigan",The Detroit times,,,,,,,,,,Detroit, Michigan, U.S.,42.3315509,-83.0466403
370,LOC Conundrum Supper,,,'1893-10-27,,Grange Hall,"South Londonerry, Vermont",The Londonerry Sifter,,,,,,,,,,South Londonerry, Vermont, U.S.,,
371,LOC Conundrum Supper,,,'1891-09-03,,,"St. Johnsbury, Vermont",St. Johnsbury Caledonian,,The grange,,,,,,,,St. Johnsbury, Vermont, U.S.,44.4192249,-72.0150951
372,LOC Conundrum Supper,,,'1897-06-10,,The grange,"Waterbury, Connecticut",Waterbury Democrat,,Builders of the M.E. church and Mrs. H. Turner,,,,,,,,Waterbury, Connecticut, U.S.,41.5538091,-73.0438362
373,LOC Conundrum Supper,,,'1910-06-08,,Lecture room of the church,"Woodbridge, New Jersey",Perth Amboy evening news,"Same event is referenced in the issues from June 2, May 31, June 09, and June 11; This newspaper contains a reference to another CS event as well",C.E. of Calvary church,,,,,,,,Woodbridge, New Jersey, U.S.,40.55418,-74.28600077
374,LOC Conundrum Supper,,,'1901-03-15,,Residence of J.E. Eggleston,"Jarrettsville, Maryland",The aegis & intelligencer,Contains eBOF,Christian Endeavor society,,,,,"An American author, the Irish for tea, a part of the foot, a son of Noah, a color, to put under the ground, employment of some women and the dread of all, drawing with the mouth, a narrow bed, a kind of tree, part of a house and a letter, a favorite Oriental Beverage, a doll's composition, a personal pronoun, bivalvular mollusks with fire-works, married people, chopped stupidity, Staff of life, a popular resort, a carpenter's sgn, a lacking quantity in Jarrettsville and surrounding county, an accompanient to a cold, the delight of the lawyer, shopped contention, sumptuously seasoned, what Pharoah saw in a dream, parson prey, an insect and a letter.",,,Jarrettsville, Maryland, U.S.,39.60455,-76.4777422
375,LOC Conundrum Supper,,,'1910-06-08,,,"Metuchen, New Jersey",Perth Amboy evening news,,Y.P.S.C.E.,,,,,,,,Metuchen, New Jersey, U.S.,40.5431598,-74.3632049
376,LOC Conundrum Supper,,,'1895-03-15,,Residence of Miss Julia Thorp,"Nichols, Connecticut",The Newtown bee,,The Students of Academy Green,,,,,,,,Nichols, Connecticut, U.S.,41.2409299,-73.1612225
377,LOC Conundrum Supper,,,'1892-06-09,,Academy Green,"Burlington, Vermont",Burlington Weekly Free Press,,,,,,,,,,Burlington, Vermont, U.S.,44.4762975,-73.2135472
378,LOC Conundrum Supper,,,'1894-03-15,,Church vestry,"Morrisville, Vermont",News and Citizen,,The Ladies’ Aid Society of the Westminster Presbyterian Church,,,,,,,,Morrisville, Vermont, U.S.,44.5591997,-72.59236866
379,LOC Conundrum Supper,,,'1907-10-30,,Lecture room of the church,"Salt Lake City, Utah",The Salt Lake Tribune,,Ladies Aid Society,,,,,,,,Salt Lake City, Utah, U.S.,40.7670126,-111.8904308
380,LOC Conundrum Supper,,,'1907-10-30,,Lecture Room of the Church,"Salt Lake City, Utah",The Salt Lake Herald,Event referred to on October 31 as well.,Y.P.S.C.E. of Westminster Presbyterian Church,,,,,,,,Salt Lake City, Utah, U.S.,40.7670126,-111.8904308
381,LOC Conundrum Supper,,,'1892-03-15,,,"Sacramento, California",The record-union,Contains eBOF; event is also referenced on the March 16 issue,Ladies Aid Society,,,,,"Supper bill of fare: An Unruly Member, Pride of Boston, April Blossoms, A Young Man's Sweetheart, Impertinences, Fruit of the Vine, Tree Cake, Spring's Offering, Lay of the Last Minstrel, Boston's Overthrow, One of Noah's Sons, No Grounds for Complaint, Prairie Flower, Raised in Town, Tramp Cake, Frozen Tree, What Some People Don't Know, Cake Hard to Beat.",,,Sacramento, California, U.S.,38.5815719,-121.4943996
382,LOC Conundrum Supper,,,'1897-06-11,,Congregational parsonage,"Guildhall, Vermont",Essex County Herald,,Epworth League,,,,,,,,Guildhall, Vermont, U.S.,44.5651812,-71.5610294
383,LOC Conundrum Supper,,,'1905-03-15,,Church vestry,"St. Johnsbury, Vermont",St. Johnsbury Caledonian,,King’s Daughters and Sons and Ladies’ Aid Society,,,,,,,,St. Johnsbury, Vermont, U.S.,44.4192249,-72.0150951
384,LOC Conundrum Supper,,,'1906-03-15,,E.L. Marshall’s,"West Randolph, Vermont",Herald and News,,,,,,,,,,West Randolph, Vermont, U.S.,43.925099,-72.666321
385,LOC Conundrum Supper,,,'1891-03-15,,West Side Westminster Presbyterian church,"St. Paul, Minnesota",St. Paul daily globe,,Ladies of West Nottingham Presbyterian Church,,,,,,,,St. Paul, Minnesota, U.S.,44.9504037,-93.1015026
386,LOC Conundrum Supper,,,'1892-10-29,,Chapel adjoining the church,"Elkton, Maryland",The Cecil Whig,,Methodist Epworth league,,,,,,,,Elkton, Maryland, U.S.,39.6065073,-75.8330934
387,LOC Conundrum Supper,,,'1913-10-30,,League room of the M.E. church,"Exira, Iowa",Audubon County journal,Contains eBOF; same event is referenced in the issue from Oct. 23.,Ladies Aid society of the Bergen Point M.E. church,,,,,"Substantials: What some people don't know, Women of Grit, Heart throbs in vinegar, Split dead-head, Descendant of Noah, Chip of the old block, What you never will? do if you keep on doing as you are doing now, Salamagundi, Lirshman's? favorite. Desserts: Whip tips, Hidden tears, Fall of mankind, Floating Island, Cool Impudence, A tramp's breakfast, Young men's favorite fruit, What young men are fond of. Drinks: Bean soup, Nature's offering, Ivory manipulators.",,,Exira, Iowa, U.S.,41.5905324,-94.8757758
388,LOC Conundrum Supper,,,'1892-10-29,,"Reynolds Memorial Chapel, No. 138 Avenue D","Jersey City, New Jersey",The Jersey City news,Same event is referenced in the issue from November 2,Maple Lodge,,,,,,,,Jersey City, New Jersey, U.S.,40.7281575,-74.0776417
389,LOC Conundrum Supper,,,'1895-10-31,,E.J. Parmelee,"Burlington, Vermont",Burlington Weekly Free Press,,,,,,,,,,Burlington, Vermont, U.S.,44.4762975,-73.2135472
